station_id;date_from;date_to;altitude;latitude;longitude;name;state
3;1995-09-01;2011-04-01;202;50.7827;6.0941;Aachen;Nordrhein-Westfalen
20;2004-08-14;2022-02-16;432;48.9219;9.9129;Abtsgmünd-Untergröningen;Baden-Württemberg
29;2006-01-10;2022-02-16;260;49.7175;10.9101;Adelsdorf (Kläranlage);Bayern
44;2007-04-01;2022-02-16;44;52.9336;8.237;Großenkneten;Niedersachsen
46;2006-01-03;2022-02-16;325;48.945;12.4639;Aholfing;Bayern
47;2008-11-03;2013-11-27;338;49.4997;9.5439;Ahorn-Eubigheim;Baden-Württemberg
53;2005-10-01;2022-02-16;60;52.585;13.5634;Ahrensfelde;Brandenburg
71;2004-10-22;2020-01-01;759;48.2156;8.9784;Albstadt-Badkap;Baden-Württemberg
73;2007-04-01;2022-02-16;340;48.6159;13.0506;Aldersbach-Kriestorf;Bayern
78;2004-11-01;2022-02-16;65;52.4853;7.9126;Alfhausen;Niedersachsen
87;2005-02-01;2022-02-16;158;51.095;11.0479;Alperstedt;Thüringen
91;2004-09-01;2022-02-16;300;50.7446;9.345;Alsfeld-Eifa;Hessen
96;2019-04-09;2022-02-16;50;52.9437;12.8518;Neuruppin-Alt Ruppin;Brandenburg
103;2004-07-01;2022-02-16;364;48.896;12.217;Hagelstadt;Bayern
118;2005-06-01;2022-02-16;388;49.4053;12.2852;Altendorf;Bayern
124;2006-11-01;2022-02-16;265;51.2388;11.577;Bibra, Bad-Altenroda;Sachsen-Anhalt
130;2004-12-01;2022-02-16;300;49.7283;9.7692;Altertheim-Oberaltertheim;Bayern
131;2004-11-01;2022-02-16;296;51.0881;12.9326;Geringswalde-Altgeringswalde;Sachsen
142;2005-12-01;2022-02-16;511;48.406;11.3117;Altomünster-Maisbrunn;Bayern
146;2006-01-08;2022-02-16;730;47.7922;10.0988;Altusried-Muthmannshofen;Bayern
150;2005-07-01;2022-02-16;215;49.7273;8.1164;Alzey;Rheinland-Pfalz
151;2005-03-01;2022-02-16;382;49.4691;11.8546;Amberg-Unterammersricht;Bayern
152;2009-07-01;2012-01-12;57;53.1268;10.2184;Amelinghausen;Niedersachsen
154;2005-03-01;2022-02-16;516;48.0197;12.2925;Amerang-Pfaffing;Bayern
158;2004-07-01;2022-02-16;210;50.784;8.9545;Amöneburg-Rüdigheim;Hessen
161;2011-09-01;2022-02-16;75;50.4237;7.4202;Andernach;Rheinland-Pfalz
164;1995-09-01;2022-02-16;54;53.0316;13.9908;Angermünde;Brandenburg
167;2004-09-01;2022-02-16;11;53.8408;13.6854;Anklam;Mecklenburg-Vorpommern
183;1995-09-01;2022-02-16;42;54.6791;13.4344;Arkona;Mecklenburg-Vorpommern
191;2005-03-01;2022-02-16;217;49.9694;9.9114;Arnstein-Müdesheim;Bayern
194;2005-02-01;2022-02-16;265;51.3431;9.0763;Arolsen-Landau, Bad;Hessen
198;1995-09-01;2022-02-16;164;51.3744;11.292;Artern;Thüringen
200;2004-12-01;2022-02-16;517;50.085;6.3161;Lauperath-Scheidchen;Rheinland-Pfalz
205;2005-05-01;2022-02-16;681;47.7275;12.2982;Aschau-Stein;Bayern
211;2004-11-01;2022-02-16;200;50.58;8.4685;Aßlar Klein-Altenstädten;Hessen
213;2007-05-01;2022-02-16;170;51.9375;10.9897;Sargstedt;Sachsen-Anhalt
216;2004-10-01;2022-02-16;298;51.1143;7.8807;Attendorn-Neulisternohl;Nordrhein-Westfalen
217;2005-01-01;2022-02-16;670;47.8774;11.3643;Attenkam;Bayern
222;1995-09-01;2022-02-16;393;50.5908;12.7139;Aue;Sachsen
227;2004-10-01;2022-02-16;432;49.8823;11.2656;Aufseß-Hochstahl;Bayern
232;1996-11-07;2022-02-16;462;48.4253;10.9417;Augsburg;Bayern
240;2004-09-01;2022-02-16;293;50.1805;9.5743;Aura im Sinngrund;Bayern
246;2006-01-01;2008-08-12;73;51.7015;12.8909;Axien;Sachsen-Anhalt
257;2002-11-01;2022-02-16;240;48.727;8.2457;Baden-Baden-Geroldsau;Baden-Württemberg
259;2004-07-01;2022-02-16;275;47.8064;7.6387;Müllheim;Baden-Württemberg
269;2006-05-24;2022-02-16;599;48.5116;8.3176;Baiersbronn-Mitteltal;Baden-Württemberg
275;2004-10-01;2022-02-16;1039;47.465;10.1043;Balderschwang;Bayern
279;2006-11-01;2022-02-16;457;48.7574;9.4514;Baltmannsweiler-Hohengehren;Baden-Württemberg
282;1995-09-01;2022-02-16;240;49.8743;10.9206;Bamberg;Bayern
287;2008-05-01;2022-02-16;53;51.961;11.9159;Walternienburg-Ronney;Sachsen-Anhalt
292;2005-12-01;2022-02-16;37;52.6965;8.487;Barnstorf;Niedersachsen
294;2004-07-01;2022-02-16;110;52.3199;9.43;Barsinghausen-Hohenbostel;Niedersachsen
298;1995-09-01;2022-02-16;3;54.3405;12.7108;Barth;Mecklenburg-Vorpommern
301;2015-09-01;2022-02-16;659;48.7584;9.9855;Bartholomä;Baden-Württemberg
303;1995-09-01;2022-02-16;55;52.0613;13.4997;Baruth;Brandenburg
310;2004-11-01;2022-02-16;590;51.0662;8.5375;Battenberg-Hof Karlsburg;Hessen
312;2007-06-01;2022-02-16;52;53.8149;11.8818;Baumgarten;Mecklenburg-Vorpommern
314;2004-05-01;2022-02-16;234;51.1604;14.5042;Kubschütz, Kr. Bautzen;Sachsen
316;2004-11-01;2022-02-16;310;49.6957;7.8387;Bayerfeld-Steckweiler -Schmalfelderhof;Rheinland-Pfalz
320;2006-07-01;2022-02-16;350;49.9666;11.5198;Heinersreuth-Vollhof;Bayern
323;2004-03-15;2022-02-16;425;49.1626;10.5918;Bechhofen/Mittelfranken -Voggendorf;Bayern
326;2004-07-01;2013-07-08;120;51.7204;8.0577;Beckum-Unterberg;Nordrhein-Westfalen
330;2004-08-01;2022-02-16;455;49.5617;8.9673;Oberzent-Beerfelden;Hessen
336;2004-09-01;2022-02-16;290;51.0221;10.5148;Hörselberg-Hainich-Behringen;Thüringen
342;2010-12-01;2022-02-16;103;52.317;8.1694;Belm;Niedersachsen
348;1995-09-01;2011-09-02;127;50.4135;7.5886;Bendorf;Rheinland-Pfalz
357;2005-09-01;2022-02-16;50;52.3018;7.1301;Bentheim, Bad;Niedersachsen
359;2004-07-01;2022-02-16;464;49.1022;11.796;Beratzhausen;Bayern
360;2004-07-01;2022-02-16;403;49.1115;11.4328;Berching;Bayern
377;2004-10-01;2022-02-16;210;49.107;7.9967;Bergzabern, Bad;Rheinland-Pfalz
378;2005-04-01;2022-02-16;136;51.6843;10.1077;Berka;Niedersachsen
379;2017-09-01;2022-02-16;304;50.9074;11.2665;Berka, Bad (Flugplatz);Thüringen
384;2005-06-22;2014-09-18;570;48.0409;10.0808;Berkheim;Baden-Württemberg
389;2009-11-01;2022-02-16;436;51.0148;8.4318;Berleburg, Bad-Arfeld;Nordrhein-Westfalen
390;2004-07-01;2022-02-16;610;50.9837;8.3683;Berleburg, Bad-Stünzel;Nordrhein-Westfalen
399;1995-09-01;2011-08-01;36;52.5198;13.4057;Berlin-Alexanderplatz;Berlin
400;2004-06-01;2022-02-16;60;52.6309;13.5022;Berlin-Buch;Berlin
403;2002-01-28;2022-02-16;51;52.4537;13.3017;Berlin-Dahlem (FU);Berlin
410;2004-05-01;2020-06-16;33;52.404;13.7309;Berlin-Kaniswall;Berlin
420;2007-08-01;2022-02-16;60;52.5447;13.5598;Berlin-Marzahn;Berlin
427;1995-09-01;2022-02-16;46;52.3807;13.5306;Berlin Brandenburg;Brandenburg
430;1995-09-01;2021-05-05;36;52.5644;13.3088;Berlin-Tegel;Berlin
433;1995-09-01;2022-02-16;48;52.4675;13.4021;Berlin-Tempelhof;Berlin
443;2004-03-15;2022-02-16;936;47.7388;10.7448;Bernbeuren-Prachtsried;Bayern
445;2005-07-01;2022-02-16;85;51.8218;11.711;Bernburg/Saale (Nord);Sachsen-Anhalt
450;2005-11-01;2012-12-04;120;49.9186;7.0664;Bernkastel-Kues;Rheinland-Pfalz
460;1995-09-01;2022-02-16;363;49.2641;6.6868;Berus;Saarland
468;2004-09-11;2022-02-16;505;49.7291;6.9175;Beuren (Hochwald);Rheinland-Pfalz
479;2005-02-01;2022-02-16;138;50.2435;9.2892;Wächtersbach;Hessen
498;2006-07-24;2022-02-16;760;47.7453;8.3111;Ühlingen-Birkendorf;Baden-Württemberg
504;2007-06-01;2022-02-16;79;51.7982;13.9716;Bischdorf, Kreis Oberspreewald;Brandenburg
505;2004-09-01;2006-06-16;332;51.4268;10.0932;Bischhagen;Thüringen
522;2005-02-20;2022-02-16;425;48.7092;10.6283;Bissingen (Kläranlage);Bayern
523;2006-03-01;2018-06-01;359;49.9797;6.5325;Bitburg;Rheinland-Pfalz
535;2004-06-01;2022-02-16;417;50.0372;7.3079;Blankenrath;Rheinland-Pfalz
542;2004-11-01;2022-02-16;12;53.2401;10.8522;Bleckede-Walmsburg;Niedersachsen
550;2002-11-01;2022-02-16;344;50.9041;11.7985;Bobeck;Thüringen
551;2006-11-01;2022-02-16;517;50.3887;11.9955;Weischlitz-Heinersgrün;Sachsen
554;1995-09-01;2022-02-16;23;51.8293;6.5365;Bocholt-Liedern (Wasserwerk);Nordrhein-Westfalen
555;2008-01-01;2018-11-01;101;51.4789;7.2697;Bochum;Nordrhein-Westfalen
561;2005-10-01;2022-02-16;11;53.367;7.9679;Bockhorn-Grabstede;Niedersachsen
567;2009-09-01;2022-02-16;258;51.6957;9.5135;Bodenfelde-Amelith;Niedersachsen
589;2004-05-01;2022-02-16;343;48.8846;12.7453;Bogen-Pfelling;Bayern
591;1995-09-01;2022-02-16;45;53.3911;10.6878;Boizenburg;Mecklenburg-Vorpommern
596;1995-09-01;2022-02-16;15;54.0027;11.1908;Boltenhagen;Mecklenburg-Vorpommern
599;1995-09-01;1999-03-02;62;50.7055;7.1467;Bonn-Friesdorf;Nordrhein-Westfalen
603;1999-03-03;2022-02-16;147;50.7293;7.204;Königswinter-Heiderhof;Nordrhein-Westfalen
604;2006-10-09;2022-02-16;875;47.8194;8.3348;Bonndorf/Schwarzwald;Baden-Württemberg
613;2004-11-01;2022-02-16;206;51.5677;9.2324;Borgentreich;Nordrhein-Westfalen
617;2004-06-01;2022-02-16;47;51.873;6.8863;Borken in Westfalen;Nordrhein-Westfalen
622;2006-06-01;2022-02-16;66;52.3745;11.4655;Westheide-Born;Sachsen-Anhalt
630;2006-06-01;2022-02-16;87;52.0193;11.4059;Bottmersdorf-Klein Germersleben;Sachsen-Anhalt
633;2004-06-01;2022-02-16;126;51.4041;14.5681;Boxberg;Sachsen
644;2005-01-01;2022-02-16;150;51.7049;9.1738;Brakel;Nordrhein-Westfalen
653;2005-05-01;2022-02-16;483;47.7241;12.1092;Brannenburg-Degerndorf;Bayern
656;1995-09-01;2022-02-16;607;51.7234;10.6021;Braunlage;Niedersachsen
662;1997-10-22;2022-02-16;81;52.2915;10.4464;Braunschweig;Niedersachsen
677;2003-04-21;2022-02-16;610;48.1266;10.3649;Breitenbrunn-Fürbuch;Bayern
684;2005-06-21;2022-02-16;1000;47.9385;8.0761;Breitnau;Baden-Württemberg
685;1995-09-28;2006-11-02;585;49.9017;9.4281;Breitsol;Bayern
691;1995-09-01;2022-02-16;4;53.0451;8.7981;Bremen;Bremen
701;1998-06-10;2022-02-16;7;53.5332;8.5761;Bremerhaven;Bremen
704;1995-09-01;2022-02-16;11;53.4451;9.139;Bremervörde;Niedersachsen
714;2005-06-01;2022-02-16;46;52.3653;14.2474;Neu Madlitz;Brandenburg
721;2004-06-01;2022-02-16;101;51.5171;12.4362;Schönwölkau-Brinnis;Sachsen
723;2004-12-01;2022-02-16;290;50.1841;7.24;Kail;Rheinland-Pfalz
730;2004-09-11;2011-01-20;238;49.3864;7.4567;Bruchmühlbach-Miesau/Glan;Rheinland-Pfalz
731;2007-12-01;2022-02-16;130;49.1127;8.6372;Bruchsal-Heidelsheim;Baden-Württemberg
732;2004-09-19;2022-02-16;545;49.7985;7.2278;Bruchweiler, Kr. Birkenfeld;Rheinland-Pfalz
735;2005-05-01;2022-02-16;52;52.1692;12.7334;Brück-Gömnigk;Brandenburg
753;2004-05-01;2022-02-16;305;50.87;11.5022;Bucha;Thüringen
755;2004-06-01;2022-02-16;340;49.5182;9.3213;Buchen, Kr. Neckar-Odenwald;Baden-Württemberg
757;2004-06-01;2022-02-16;445;47.9625;7.9983;Buchenbach;Baden-Württemberg
760;2017-12-01;2022-02-16;82;53.3629;9.9435;Rosengarten-Klecken;Niedersachsen
775;2004-10-01;2022-02-16;100;52.0;10.6323;Osterwieck-Rimbeck;Sachsen-Anhalt
789;2004-06-01;2022-02-16;263;49.6063;9.8834;Bütthard;Bayern
791;2006-01-01;2022-02-16;8;54.6328;8.937;Bordelum;Schleswig-Holstein
796;2004-11-01;2022-02-16;412;50.7556;8.1257;Burbach-Würgendorf;Nordrhein-Westfalen
797;2005-08-01;2022-02-16;39;52.3241;11.8339;Burg-Blumenthal;Sachsen-Anhalt
801;2002-11-01;2022-02-16;331;49.4549;10.3241;Burgbernheim;Bayern
807;2007-04-25;2022-02-16;290;49.745;10.6434;Schlüsselfeld (Kläranlage);Bayern
808;2006-03-01;2022-02-16;413;48.187;12.8098;Mehring, Kr. Altötting-Niederholz;Bayern
812;2004-12-01;2022-02-16;278;50.1429;11.2322;Burgkunstadt;Bayern
814;2006-01-08;2022-02-16;270;50.1451;10.7066;Pfarrweisach-Lohr (Pegel);Bayern
815;2006-11-01;2022-02-16;162;51.5426;11.6947;Seegebiet Mansfelder Land-Dederstedt;Sachsen-Anhalt
817;2005-02-01;2022-02-16;293;51.0306;8.8146;Burgwald-Bottendorf;Hessen
837;2004-07-01;2022-02-16;244;50.2863;8.2949;Camberg, Bad;Hessen
839;2011-01-05;2022-02-16;27;53.7575;10.9288;Carlow;Mecklenburg-Vorpommern
840;1995-09-01;2022-02-16;895;50.4313;12.6114;Carlsfeld;Sachsen
848;2008-08-01;2022-02-16;38;52.6146;10.0726;Celle (Stadt);Niedersachsen
853;1995-09-01;2022-02-16;416;50.7913;12.872;Chemnitz;Sachsen
856;1995-09-07;2022-02-16;551;47.8843;12.5404;Chieming;Bayern
857;2005-02-01;2022-02-16;535;47.8665;12.395;Chiemsee-Herrenchiemsee;Bayern
863;2007-10-01;2012-04-05;585;51.7904;10.347;Clausthal-Zellerfeld;Niedersachsen
867;1995-09-01;2022-02-16;344;50.3066;10.9679;Lautertal-Oberlauter;Bayern
871;2005-08-01;2022-02-16;87;51.9618;7.1585;Coesfeld;Nordrhein-Westfalen
874;2005-08-01;2022-02-16;52;52.2994;11.6733;Zielitz;Sachsen-Anhalt
880;1995-09-01;2022-02-16;69;51.7759;14.3168;Cottbus;Brandenburg
885;2005-06-01;2022-02-16;450;49.8449;11.616;Creußen-Bühl;Bayern
891;2000-05-10;2022-02-16;5;53.8713;8.7058;Cuxhaven;Niedersachsen
896;2004-08-01;2022-02-16;170;51.0778;10.8619;Dachwig;Thüringen
902;2006-10-01;2022-02-16;573;50.4115;6.5615;Dahlem-Schmidtheim;Nordrhein-Westfalen
917;2004-09-01;2022-02-16;162;49.8809;8.6779;Darmstadt;Hessen
921;2004-09-11;2012-07-31;352;50.045;6.1369;Dasburg/Our;Rheinland-Pfalz
922;2006-01-10;2022-02-16;460;48.395;11.0594;Dasing (Kläranlage);Bayern
931;2004-10-19;2022-02-16;712;47.8007;9.4108;Deggenhausertal-Azenweiler;Baden-Württemberg
933;2003-04-28;2022-02-16;585;48.0368;11.5777;Deisenhofen, Kreis München;Bayern
934;2004-10-01;2022-02-16;88;51.7835;8.5658;Delbrück;Nordrhein-Westfalen
942;2004-11-01;2022-02-16;308;50.122;6.599;Densborn;Rheinland-Pfalz
953;1997-12-10;2022-02-16;481;49.7619;7.0542;Deuselbach;Rheinland-Pfalz
961;2004-07-01;2022-02-16;258;51.4743;9.0039;Diemelstadt-Rhoden;Hessen
962;2004-05-01;2022-02-16;326;50.8018;11.1692;Stadtilm-Dienstedt;Thüringen
963;1996-06-03;2022-02-16;38;52.5881;8.3424;Diepholz;Niedersachsen
966;2006-02-01;2022-02-16;65;52.7522;10.8831;Diesdorf;Sachsen-Anhalt
970;2002-11-01;2022-02-16;405;49.4158;10.6734;Dietenhofen;Bayern
974;2006-09-01;2022-02-16;440;51.5307;11.0457;Südharz-Dietersdorf;Sachsen-Anhalt
977;2004-09-01;2012-10-01;377;50.8541;8.3416;Dietzhölztal-Mandeln;Hessen
978;2005-02-01;2022-02-16;155;50.3574;8.0485;Holzheim bei Diez;Rheinland-Pfalz
979;2004-09-01;2022-02-16;314;50.7364;8.2672;Dillenburg;Hessen
983;2006-12-01;2022-02-16;419;48.5562;10.5599;Dillingen/Donau-Fristingen;Bayern
985;2006-01-01;2022-02-16;492;49.0504;10.2892;Dinkelsbühl-Oberwinstetten;Bayern
988;2005-09-01;2022-02-16;23;52.6746;8.114;Dinklage;Niedersachsen
989;2005-02-01;2022-02-16;46;51.5765;6.7849;Dinslaken;Nordrhein-Westfalen
991;2005-02-01;2022-02-16;359;50.9116;13.7087;Dippoldiswalde-Reinberg;Sachsen
1001;1995-09-01;2022-02-16;97;51.6451;13.5747;Doberlug-Kirchhain;Brandenburg
1014;2005-03-01;2022-02-16;2;53.2289;7.2191;Dollart-Kanalpolder;Niedersachsen
1018;2006-10-09;2011-11-29;677;47.9422;8.5046;Donaueschingen;Baden-Württemberg
1023;2006-01-03;2022-02-16;430;48.2746;12.1616;Dorfen (Kläranlage);Bayern
1024;2006-08-01;2022-02-16;37;51.1157;6.851;Dormagen-Zons;Nordrhein-Westfalen
1030;2005-03-01;2022-02-16;1;53.646;7.4302;Dornum;Niedersachsen
1039;2004-12-01;2022-02-16;317;51.5263;9.7978;Dransfeld-Ossenfeld;Niedersachsen
1046;2004-10-01;2022-02-16;72;51.7585;7.7528;Drensteinfurt;Nordrhein-Westfalen
1048;1995-09-01;2022-02-16;228;51.1278;13.7543;Dresden-Klotzsche;Sachsen
1050;2006-04-01;2022-02-16;112;51.0221;13.847;Dresden-Hosterwitz;Sachsen
1051;2007-03-01;2022-02-16;120;51.0248;13.775;Dresden-Strehlen;Sachsen
1052;2004-07-01;2022-02-16;80;52.2174;12.1641;Drewitz bei Burg;Sachsen-Anhalt
1055;2004-10-01;2022-02-16;482;50.6316;8.1813;Driedorf;Hessen
1056;2005-12-01;2022-02-16;2;53.7118;9.3791;Drochtersen;Niedersachsen
1067;2004-10-01;2022-02-16;95;51.9265;12.3852;Düben;Sachsen-Anhalt
1072;2004-06-01;2022-02-16;107;49.4719;8.1929;Dürkheim, Bad;Rheinland-Pfalz
1078;1995-09-01;2022-02-16;37;51.296;6.7686;Düsseldorf;Nordrhein-Westfalen
1089;2006-06-08;2022-02-16;197;48.5017;7.9943;Durbach-Ebersweier;Baden-Württemberg
1093;2014-04-29;2022-02-16;131;49.4593;8.9595;Eberbach;Baden-Württemberg
1094;2009-09-24;2022-02-15;611;47.7958;11.1991;Eberfing;Bayern
1095;2006-09-01;2011-07-25;192;51.6001;10.1105;Krebeck-Renshausen;Niedersachsen
1103;2006-10-01;2022-02-16;592;48.1003;11.9872;Ebersberg-Halbing;Bayern
1107;2004-12-01;2022-02-16;346;49.852;10.4991;Ebrach;Bayern
1119;2004-09-23;2022-02-16;535;49.5767;11.6975;Edelsfeld;Bayern
1130;2009-07-01;2022-02-16;17;54.6282;9.3649;Eggebek;Schleswig-Holstein
1132;2006-01-10;2022-02-16;410;48.3956;12.7287;Eggenfelden;Bayern
1139;2004-03-15;2010-12-20;400;48.6846;13.2512;Eging am See-Burgstall;Bayern
1158;2004-07-28;2022-02-16;350;48.636;12.8531;Eichendorf;Bayern
1161;2005-02-01;2022-02-16;384;48.8777;11.2349;Eichstätt-Landershofen;Bayern
1166;2004-09-01;2022-02-16;107;51.4603;12.6687;Eilenburg;Sachsen
1170;2007-07-01;2022-02-16;265;51.8873;9.728;Eimen-Vorwohle;Niedersachsen
1176;2004-11-02;2022-02-16;976;47.9634;8.2693;Eisenbach;Baden-Württemberg
1197;2002-11-01;2022-02-16;460;48.9895;10.1312;Ellwangen-Rindelbach;Baden-Württemberg
1200;1995-09-01;2022-02-16;3;54.0691;9.0105;Elpersbüttel;Schleswig-Holstein
1207;2006-03-01;2022-02-16;558;50.2705;12.2742;Elster, Bad-Sohl;Sachsen
1210;2006-07-01;2022-02-16;90;51.4505;13.5046;Elsterwerda;Brandenburg
1214;2004-08-01;2022-02-16;431;48.2012;8.1088;Elzach-Fisnacht;Baden-Württemberg
1216;2005-02-01;2022-02-16;312;49.4251;9.243;Elztal-Rittersbach;Baden-Württemberg
1219;1995-09-01;1997-06-30;5;53.3449;7.1909;Emden-Nesserland;Niedersachsen
1223;2005-09-01;2022-02-16;13;52.5983;6.9449;Ringe-Großringe;Niedersachsen
1224;2002-12-01;2022-02-15;201;48.1378;7.8351;Emmendingen-Mundingen;Baden-Württemberg
1237;2004-09-01;2022-02-16;507;48.089;12.5073;Tacherting-Spreit;Bayern
1239;2004-07-01;2008-09-21;540;47.8516;8.7673;Engen/Hegau;Baden-Württemberg
1241;2006-12-01;2022-02-16;128;52.15;8.5226;Enger;Nordrhein-Westfalen
1246;2015-08-01;2022-02-16;104;51.8418;8.0607;Ennigerloh-Ostenfelde;Nordrhein-Westfalen
1253;2004-09-12;2022-02-16;286;50.426;7.9395;Nentershausen (KA);Rheinland-Pfalz
1255;2002-12-01;2022-02-16;226;49.1661;8.8483;Eppingen-Elsenz;Baden-Württemberg
1262;1995-09-01;2022-02-16;446;48.3477;11.8134;München-Flughafen;Bayern
1266;2004-06-01;2022-02-16;18;54.2992;9.3162;Erfde;Schleswig-Holstein
1270;1995-09-01;2022-02-16;316;50.9829;10.9608;Erfurt-Weimar;Thüringen
1278;2007-12-01;2022-02-16;160;52.2449;10.7182;Cremlingen-Destedt;Niedersachsen
1279;2006-07-01;2022-02-16;268;49.6497;11.0075;Möhrendorf-Kleinseebach;Bayern
1282;2010-01-01;2022-02-16;565;50.3043;12.3834;Erlbach-Eubabrunn;Sachsen
1290;2005-11-01;2022-02-16;716;48.1868;8.4672;Eschbronn-Mariazell;Baden-Württemberg
1297;2004-10-01;2022-02-16;156;51.2041;10.0138;Eschwege;Hessen
1300;2004-06-01;2022-02-16;351;51.254;8.1565;Eslohe;Nordrhein-Westfalen
1303;1995-09-01;2022-02-16;150;51.4041;6.9677;Essen-Bredeney;Nordrhein-Westfalen
1304;2006-04-01;2022-02-16;48;52.3345;8.3877;Essen-Brockhausen, Bad;Niedersachsen
1313;2003-10-22;2022-02-14;940;47.5665;10.9583;Ettal-Linderhof;Bayern
1315;2006-10-09;2010-11-10;118;48.9246;8.3824;Ettlingen-Ettlingenweier;Baden-Württemberg
1320;2004-05-01;2022-02-16;137;51.261;11.1754;Etzleben;Thüringen
1327;2004-08-01;2022-02-16;147;50.7119;6.7905;Weilerswist-Lommersum;Nordrhein-Westfalen
1332;2005-03-01;2022-02-16;471;48.4832;12.7241;Falkenberg,Kr.Rottal-Inn;Bayern
1336;2004-09-01;2022-02-16;70;52.8568;9.6756;Fallingbostel, Bad;Niedersachsen
1343;2005-10-15;2022-02-16;476;47.7956;12.0161;Feilnbach,Bad;Bayern
1346;2000-08-16;2022-02-16;1490;47.8749;8.0038;Feldberg/Schwarzwald;Baden-Württemberg
1350;2007-08-01;2022-02-16;48;52.0997;13.0016;Felgentreu;Brandenburg
1357;2005-03-01;2022-02-16;655;49.9807;11.8376;Fichtelberg/Oberfranken-Hüttstadl;Bayern
1358;1995-09-01;2022-02-16;1213;50.4283;12.9536;Fichtelberg;Sachsen
1366;2006-01-10;2022-02-16;498;48.2213;11.7989;Finsing (Kraftwerk);Bayern
1392;2010-04-01;2022-02-16;621;49.7316;12.3489;Flossenbürg;Bayern
1411;2007-01-01;2022-02-16;747;50.5309;10.0479;Birx/Rhön;Thüringen
1420;1995-09-01;2022-02-16;100;50.0259;8.5213;Frankfurt/Main;Hessen
1424;2008-08-01;2022-02-16;124;50.1269;8.6694;Frankfurt/Main-Westend;Hessen
1435;2002-11-01;2022-02-16;768;50.5921;10.8575;Ilmenau-Frauenwald;Thüringen
1441;2015-04-01;2022-02-15;416;50.9263;13.2711;Freiberg;Sachsen
1443;1995-09-01;2022-02-16;237;48.0232;7.8343;Freiburg;Baden-Württemberg
1451;2004-06-01;2022-02-16;2;53.8277;9.2493;Freiburg/Elbe;Niedersachsen
1458;2005-04-01;2022-02-16;492;49.5747;11.8859;Freihung-Großschönbrunn;Bayern
1468;1995-09-01;2022-02-16;797;48.4538;8.409;Freudenstadt;Baden-Württemberg
1473;2006-01-01;2019-03-01;414;49.1869;11.308;Freystadt-Michelbach;Bayern
1495;2004-10-01;2022-02-16;52;53.5389;11.7607;Goldenbow;Mecklenburg-Vorpommern
1497;2004-12-01;2022-02-16;74;53.0238;13.7088;Friedrichswalde;Brandenburg
1503;2012-10-01;2022-02-16;6;53.0643;7.902;Friesoythe-Altenoythe;Niedersachsen
1511;2004-10-06;2022-02-16;400;48.5587;12.5719;Marklkofen (Betriebsstelle Vilstalsee);Bayern
1526;2004-11-01;2022-02-16;242;50.5668;9.6532;Fulda-Horas;Hessen
1538;2006-10-10;2016-11-11;351;49.0182;9.7414;Gaildorf-Hägenau;Baden-Württemberg
1542;2004-01-22;2022-02-16;498;48.4327;12.5714;Gangkofen (Kläranlage);Bayern
1544;1995-09-01;2022-02-16;47;52.5129;11.3942;Gardelegen;Sachsen-Anhalt
1550;1995-09-01;2022-02-16;719;47.483;11.0621;Garmisch-Partenkirchen;Bayern
1559;2004-06-01;2007-02-28;402;50.7421;7.8163;Gebhardshain;Rheinland-Pfalz
1561;2004-12-01;2022-02-16;414;50.4034;9.2076;Gedern-Schönhausen;Hessen
1573;2006-01-01;2022-02-16;281;50.7133;9.9539;Geisa;Thüringen
1578;2004-06-01;2020-10-01;395;48.6516;11.5845;Geisenfeld-Eichelberg;Bayern
1580;2006-12-01;2022-02-16;110;49.9859;7.9548;Geisenheim;Hessen
1584;2009-06-01;2022-02-16;672;47.9242;8.6473;Geisingen;Baden-Württemberg
1587;1996-08-30;2022-02-16;536;48.9481;11.4289;Gelbelsee;Bayern
1590;2003-07-01;2022-02-16;37;51.4942;6.2463;Geldern-Walbeck;Nordrhein-Westfalen
1595;2012-10-01;2022-02-16;91;51.5762;7.0652;Gelsenkirchen-Buer;Nordrhein-Westfalen
1598;2005-12-01;2022-02-16;328;50.248;7.7456;Oberbachheim;Rheinland-Pfalz
1602;2004-07-01;2022-02-16;177;48.433;7.993;Ohlsbach;Baden-Württemberg
1605;1995-09-01;2022-02-16;35;52.3875;12.1602;Genthin;Sachsen-Anhalt
1607;2002-11-01;2022-02-16;344;49.1934;11.0267;Georgensgmünd;Bayern
1612;1995-09-01;2022-02-16;311;50.8812;12.1289;Gera-Leumnitz;Thüringen
1639;1997-03-20;2022-02-16;203;50.6017;8.6439;Gießen/Wettenberg;Hessen
1642;2003-10-09;2022-02-16;550;48.1085;11.2781;Gilching;Bayern
1645;2004-05-01;2022-02-16;340;50.9656;9.05;Gilserberg-Moischeid;Hessen
1650;2004-11-01;2022-02-16;250;49.4648;7.4111;Henschtal;Rheinland-Pfalz
1669;2006-11-01;2022-02-16;43;53.808;12.9607;Borrentin-Wolkwitz;Mecklenburg-Vorpommern
1684;1995-09-01;2022-02-16;239;51.1621;14.9506;Görlitz;Sachsen
1689;2004-07-01;2022-02-16;441;49.7656;11.3062;Gößweinstein;Bayern
1691;1995-09-01;2022-02-16;167;51.5002;9.9507;Göttingen;Niedersachsen
1694;1995-09-01;2022-02-16;58;53.6058;12.1034;Goldberg;Mecklenburg-Vorpommern
1711;2007-05-01;2022-02-16;438;47.7344;8.7932;Gottmadingen;Baden-Württemberg
1717;2005-09-01;2022-02-16;28;53.2651;11.5042;Grabow (Kläranlage Fahlenkamp);Mecklenburg-Vorpommern
1721;2006-10-01;2022-02-16;506;49.664;11.2239;Gräfenberg-Kasberg;Bayern
1735;2005-03-01;2022-02-16;628;48.7894;13.629;Grainet-Rehberg;Bayern
1736;2002-07-02;2022-02-16;27;53.5731;10.6797;Grambek;Schleswig-Holstein
1744;2004-12-01;2022-02-16;139;51.5718;14.4763;Graustein;Brandenburg
1750;2004-09-01;2022-02-16;190;51.4511;9.4138;Grebenstein;Hessen
1757;1995-09-01;2022-02-16;2;54.0967;13.4056;Greifswald;Mecklenburg-Vorpommern
1759;2001-01-17;2022-02-16;12;54.2437;13.9102;Greifswalder Oie;Mecklenburg-Vorpommern
1766;1995-09-01;2022-02-16;48;52.1344;7.6969;Münster/Osnabrück;Nordrhein-Westfalen
1769;2004-10-01;2022-02-16;25;53.8312;11.1713;Grevesmühlen;Mecklenburg-Vorpommern
1770;2006-10-01;2022-02-16;38;52.4233;11.966;Tangerhütte-Grieben;Sachsen-Anhalt
1792;2005-12-01;2022-02-16;27;52.7553;7.4815;Groß Berßen;Niedersachsen
1793;2006-08-01;2022-02-16;104;51.8806;11.465;Hecklingen-Groß Börnecke;Sachsen-Anhalt
1801;2004-07-01;2022-02-16;31;52.4169;12.8006;Groß Kreutz-Krielow;Brandenburg
1803;2004-09-01;2022-02-16;34;54.0714;12.3238;Groß Lüsewitz;Mecklenburg-Vorpommern
1810;2014-07-01;2022-02-16;56;52.9094;13.5371;Schorfheide-Groß Schönebeck;Brandenburg
1813;2007-01-01;2022-02-16;15;54.4032;9.7654;Groß Wittensee;Schleswig-Holstein
1814;2004-06-01;2022-02-16;87;49.9052;8.4459;Groß-Gerau-Wallerstädten;Hessen
1827;2007-01-01;2022-02-16;3;54.3726;11.0828;Großenbrode;Schleswig-Holstein
1830;2004-11-01;2011-01-21;270;50.5455;9.5175;Großenlüder-Kleinlüder;Hessen
1832;2000-08-16;2022-02-16;1436;49.1129;13.1338;Großer Arber;Bayern
1844;2007-01-01;2022-02-16;517;47.9411;11.9004;Feldkirchen-Westerham-Lenzmühle;Bayern
1846;2006-03-02;2022-02-16;344;48.6773;12.6207;Pilsting-Bäckermühle;Bayern
1847;2008-04-01;2022-02-16;92;51.2743;12.0517;Weißenfels-Wengelsdorf;Sachsen-Anhalt
1848;2006-11-01;2022-02-16;118;51.309;12.1718;Markranstädt-Großlehna;Sachsen
1851;2003-04-29;2022-02-16;110;49.9229;9.0904;Großostheim;Bayern
1863;2007-12-01;2022-02-16;258;50.2667;9.1854;Gründau-Breitenborn;Hessen
1869;1995-09-01;2022-02-16;56;53.3154;13.9339;Grünow;Brandenburg
1870;2002-11-01;2022-02-16;160;49.5665;8.178;Grünstadt;Rheinland-Pfalz
1886;2004-07-01;2022-02-16;444;48.4878;10.2608;Günzburg;Bayern
1888;2005-02-01;2022-02-16;10;53.8119;12.114;Parum;Mecklenburg-Vorpommern
1900;2006-01-03;2022-02-16;450;48.4522;12.1549;Vilsheim-Münchsdorf;Bayern
1937;2005-02-01;2022-02-16;524;48.3705;8.7666;Haigerloch-Weildorf;Baden-Württemberg
1938;2003-04-24;2022-02-16;464;48.3028;11.5318;Haimhausen-Ottershausen;Bayern
1950;2006-01-10;2022-02-16;780;47.6463;10.8073;Halblech-Trauchgau;Bayern
1957;1995-09-01;2015-03-23;93;51.5138;11.9499;Halle-Kröllwitz;Sachsen-Anhalt
1964;2005-05-01;2022-02-16;328;49.9445;6.3821;Olsdorf;Rheinland-Pfalz
1975;1995-09-05;2022-02-16;11;53.6332;9.9881;Hamburg-Fuhlsbüttel;Hamburg
1981;2005-03-01;2022-02-16;3;53.4777;9.8957;Hamburg-Neuwiedenthal;Hamburg
1997;2004-03-08;2022-02-16;220;50.1219;9.9079;Hammelburg;Bayern
2011;2005-01-01;2022-02-16;50;52.3965;9.6629;Hannover-Herrenhausen;Niedersachsen
2012;2010-06-01;2022-02-16;57;52.3671;9.819;Hannover-Kirchrode;Niedersachsen
2014;1995-09-01;2022-02-16;55;52.4644;9.6779;Hannover;Niedersachsen
2023;1995-09-01;2022-02-16;501;48.7918;10.7062;Harburg;Bayern
2027;2006-06-01;2022-02-16;63;51.9753;8.2094;Harsewinkel;Nordrhein-Westfalen
2039;2006-11-01;2022-02-16;201;51.9002;10.5699;Harzburg, Bad;Niedersachsen
2044;1995-09-01;2022-02-16;404;51.652;11.1366;Harzgerode;Sachsen-Anhalt
2050;2006-10-01;2022-02-16;218;48.2766;8.0841;Haslach im Kinzigtal;Baden-Württemberg
2051;2006-01-07;2022-02-16;130;49.7845;9.4722;Hasloch/Main;Bayern
2064;2005-01-01;2022-02-16;449;49.184;10.8243;Haundorf-Obererlbach;Bayern
2066;2002-11-01;2022-02-16;257;50.7384;9.6607;Haunetal-Wehrda;Hessen
2072;2006-10-10;2016-10-25;665;48.2738;9.4745;Hayingen;Baden-Württemberg
2074;2004-06-01;2022-02-16;518;48.3752;8.98;Hechingen;Baden-Württemberg
2080;2004-07-01;2012-09-12;110;49.4206;8.6676;Heidelberg;Baden-Württemberg
2088;2004-06-01;2005-05-12;498;48.6765;10.1307;Heidenheim/Brenz;Baden-Württemberg
2109;2004-10-01;2022-02-16;450;50.0664;9.3458;Heinrichsthal;Bayern
2110;2003-01-05;2022-02-16;57;51.0411;6.1042;Heinsberg-Schleiden;Nordrhein-Westfalen
2115;2000-02-09;2022-02-16;4;54.175;7.892;Helgoland;Schleswig-Holstein
2119;2003-04-27;2019-10-23;650;50.238;11.7033;Helmbrechts;Bayern
2152;2004-09-01;2022-02-16;380;51.0425;10.1468;Herleshausen-Archfeld;Hessen
2159;2005-07-01;2022-02-16;434;48.5915;8.8541;Herrenberg;Baden-Württemberg
2167;2005-03-01;2012-04-02;302;49.7672;7.3356;Niederwörresbach;Rheinland-Pfalz
2170;2004-09-11;2022-02-16;526;50.1499;6.5527;Weißenseifen;Rheinland-Pfalz
2171;1995-09-01;2022-02-16;272;50.852;9.7377;Hersfeld, Bad;Hessen
2174;2010-11-01;2022-02-16;238;51.6255;10.3695;Herzberg;Niedersachsen
2175;2006-11-01;2022-02-16;340;51.689;10.357;Herzberg-Lonau;Niedersachsen
2184;2005-02-01;2019-07-26;340;51.2099;9.6914;Hessisch Lichtenau-Fürstenhagen;Hessen
2201;2005-08-01;2022-02-16;1;54.575;13.1044;Hiddensee-Vitte;Mecklenburg-Vorpommern
2211;2004-10-01;2022-02-16;295;50.737;7.6525;Hilgenroth;Rheinland-Pfalz
2213;2002-11-01;2022-02-16;407;50.3105;6.6236;Lissendorf;Rheinland-Pfalz
2222;2004-03-15;2022-02-16;1015;47.5561;10.4274;Unterjoch;Bayern
2233;2004-08-01;2022-02-16;446;50.404;11.8193;Hirschberg;Thüringen
2236;2005-03-01;2018-01-01;205;49.049;7.756;Hirschthal;Rheinland-Pfalz
2252;2005-07-01;2022-02-16;270;50.899;14.7457;Bertsdorf-Hörnitz;Sachsen
2254;2005-06-01;2022-02-16;46;52.2396;7.6449;Hörstel-Riesenbeck;Nordrhein-Westfalen
2261;1999-12-02;2022-02-16;565;50.3123;11.876;Hof;Bayern
2272;2009-12-01;2022-02-16;43;53.7784;11.5595;Ventschow;Mecklenburg-Vorpommern
2274;2004-11-01;2022-02-16;518;50.092;12.2134;Hohenberg/Eger;Bayern
2278;2004-12-01;2022-02-16;131;51.764;13.47;Hohenbucko;Brandenburg
2290;1995-09-01;2022-02-16;977;47.8009;11.0108;Hohenpeißenberg;Bayern
2292;2004-10-26;2020-10-01;740;48.3551;9.3356;Hohenstein-Bernloch;Baden-Württemberg
2293;2004-12-01;2022-02-16;315;50.1918;8.0888;Hohenstein-Breithardt;Hessen
2294;2004-07-01;2022-02-16;468;48.6572;12.0887;Hohenthann;Bayern
2306;2005-08-01;2022-02-16;8;54.3194;10.6732;Hohwacht;Schleswig-Holstein
2319;2005-06-01;2022-02-16;685;47.8823;11.6961;Holzkirchen;Bayern
2323;2006-07-01;2022-02-16;110;51.8529;9.4953;Bevern, Kr. Holzminden;Niedersachsen
2329;2004-09-01;2022-02-16;255;50.2446;8.5725;Homburg, Bad (Filterwerk);Hessen
2331;2004-08-01;2022-02-16;235;49.3278;7.3533;Homburg/Saar;Saarland
2355;2005-10-01;2022-02-16;4;53.1228;8.4205;Hude/Oldenburg;Niedersachsen
2362;2004-08-01;2022-02-16;328;50.5651;7.4843;Hümmerich;Rheinland-Pfalz
2372;2007-05-01;2022-02-16;604;50.5466;12.5706;Stützengrün-Hundshübel;Sachsen
2376;2005-12-01;2022-02-16;455;48.6549;13.5077;Büchlberg-Tannöd;Bayern
2387;2004-08-01;2022-02-16;626;48.0374;10.7409;Buchloe;Bayern
2388;2005-03-01;2022-02-16;193;48.0419;7.6322;Ihringen;Baden-Württemberg
2405;2004-12-01;2022-02-16;960;47.6078;10.202;Immenstadt-Reute;Bayern
2409;2009-01-22;2022-02-16;360;48.7662;11.4539;Ingolstadt (Flussmeisterstelle);Bayern
2410;2018-05-11;2018-05-11;364;48.7111;11.5363;Ingolstadt (Flugplatz);Bayern
2412;2006-03-02;2022-02-16;690;47.7592;12.7502;Inzell;Bayern
2415;2005-02-01;2022-02-16;713;47.8177;11.8681;Irschenberg-Kasthub;Bayern
2416;2005-01-01;2022-02-16;549;48.2022;12.0382;Isen-Westach;Bayern
2429;2003-06-26;2022-02-16;21;53.9897;9.5696;Itzehoe;Schleswig-Holstein
2431;2004-10-01;2022-02-16;367;50.1337;10.9317;Itzgrund-Herreth;Bayern
2438;2008-04-01;2022-02-16;41;53.4277;13.8166;Uckerland-Karlstein;Brandenburg
2444;2004-08-01;2022-02-16;155;50.9251;11.583;Jena (Sternwarte);Thüringen
2453;2004-11-04;2022-02-16;403;48.178;12.3798;Jettenbach;Bayern
2465;2002-07-01;2022-02-16;1;53.5083;9.7376;Jork-Moorende;Niedersachsen
2473;2004-12-01;2022-02-16;76;50.9316;6.3431;Jülich (Kläranlage);Nordrhein-Westfalen
2480;2004-09-01;2022-02-16;108;50.0643;8.993;Kahl/Main;Bayern
2483;1995-10-12;2022-02-16;839;51.1803;8.4891;Kahler Asten;Nordrhein-Westfalen
2485;2011-05-02;2022-02-16;489;48.917;9.6871;Kaisersbach-Cronhütte;Baden-Württemberg
2486;2005-03-01;2022-02-16;271;49.4262;7.7557;Kaiserslautern;Rheinland-Pfalz
2497;2004-08-01;2022-02-16;505;50.5014;6.5264;Kall-Sistig;Nordrhein-Westfalen
2500;2004-09-11;2022-02-16;570;50.3953;6.9896;Kaltenborn, Hohe Acht;Rheinland-Pfalz
2503;1995-09-01;2003-05-02;487;50.6266;10.1455;Kaltennordheim;Thüringen
2518;2005-11-01;2022-02-16;34;54.0117;13.4999;Groß Kiesow-Schlagtow;Mecklenburg-Vorpommern
2522;1996-01-28;2008-11-01;112;49.0382;8.3641;Karlsruhe;Baden-Württemberg
2531;2004-07-01;2022-02-16;32;53.1724;11.7491;Karstädt/Prignitz;Brandenburg
2532;2000-04-19;2013-11-01;231;51.2963;9.4424;Kassel;Hessen
2538;2005-06-01;2022-02-16;425;49.3658;11.6925;Kastl, Kreis Amberg-Sulzbach;Bayern
2541;2002-11-01;2022-02-16;452;50.5467;11.0317;Katzhütte;Thüringen
2542;2004-06-01;2016-04-01;716;47.8652;10.6007;Kaufbeuren;Bayern
2546;2007-05-01;2022-02-16;141;48.5576;7.88;Kehl-Odelshofen;Baden-Württemberg
2550;2006-01-11;2022-02-16;350;48.9244;11.85;Kelheim;Bayern
2556;2004-11-01;2021-04-01;460;49.8671;11.8807;Kemnath;Bayern
2559;1995-09-01;2022-02-16;705;47.7233;10.3348;Kempten;Bayern
2562;2009-03-01;2022-02-16;428;51.334;10.529;Helbedündorf-Keula;Thüringen
2564;2010-07-14;2022-02-16;28;54.3776;10.1424;Kiel-Holtenau;Schleswig-Holstein
2575;2006-09-01;2022-02-16;432;49.1804;9.98;Kirchberg/Jagst-Herboldshausen;Baden-Württemberg
2577;2005-10-01;2022-02-16;34;52.6007;8.8522;Kirchdorf, Kreis Diepholz;Niedersachsen
2578;2004-07-01;2022-02-16;14;53.9995;11.4341;Kirchdorf/Poel;Mecklenburg-Vorpommern
2595;2004-07-01;2022-02-16;181;49.789;7.4853;Kirn;Rheinland-Pfalz
2597;1995-09-01;2022-02-16;282;50.224;10.0792;Kissingen, Bad;Bayern
2600;2005-03-01;2022-02-16;193;49.7363;10.1781;Kitzingen;Bayern
2601;1995-09-01;2022-02-16;822;50.2218;8.4469;Kleiner Feldberg/Taunus;Hessen
2618;2004-10-01;2022-02-16;732;50.8458;10.4803;Kleiner Inselsberg;Thüringen
2619;2004-09-11;2022-02-16;447;49.8939;7.1885;Kleinich, Kr. Bernkastel-Wittlich;Rheinland-Pfalz
2625;2004-07-01;2022-02-16;38;52.739;12.4984;Kleßen;Brandenburg
2627;2004-07-01;2022-02-16;128;51.5554;13.8845;Klettwitz;Brandenburg
2629;2004-07-01;2022-02-16;46;51.7612;6.0954;Kleve;Nordrhein-Westfalen
2638;1995-09-01;2022-02-16;974;48.1054;8.7548;Klippeneck;Baden-Württemberg
2641;2004-09-01;2022-02-16;90;51.5185;12.9065;Klitzschen bei Torgau;Sachsen
2660;2004-07-11;2022-02-16;805;47.5699;11.3006;Kochel-Einsiedl (Kraftwerk);Bayern
2662;2006-12-01;2022-02-16;59;52.5233;11.1261;Köckte;Sachsen-Anhalt
2667;1995-09-01;2022-02-16;92;50.8646;7.1575;Köln-Bonn;Nordrhein-Westfalen
2673;2007-08-01;2022-02-16;53;52.1331;11.7757;Königsborn;Sachsen-Anhalt
2677;2006-10-10;2022-02-16;730;48.1413;8.4285;Königsfeld/Schwarzwald;Baden-Württemberg
2680;2005-06-01;2022-02-16;289;50.284;10.4456;Königshofen, Bad;Bayern
2689;2004-11-01;2022-02-16;40;53.2279;9.6527;Königsmoor;Niedersachsen
2700;2004-12-01;2022-02-16;416;48.8302;11.4872;Kösching;Bayern
2703;1995-09-01;2000-10-10;496;51.855;9.3239;Köterberg;Nordrhein-Westfalen
2704;2004-05-01;2022-02-16;76;51.7511;12.0094;Köthen (Anhalt);Sachsen-Anhalt
2708;2006-07-01;2022-02-16;742;47.6652;11.0805;Kohlgrub, Bad (Rosshof);Bayern
2709;2004-11-01;2022-02-16;230;49.9164;10.2363;Kolitzheim;Bayern
2712;1995-09-01;2022-02-16;428;47.6952;9.1307;Konstanz;Baden-Württemberg
2718;2002-11-01;2022-02-16;458;51.288;8.7928;Korbach-Rhena;Hessen
2733;2004-11-01;2022-02-16;46;52.7277;13.0121;Kremmen-Groß Ziethen;Brandenburg
2734;2006-01-01;2022-02-16;2;54.3237;9.0247;Krempel;Schleswig-Holstein
2740;2005-05-01;2022-02-16;897;47.6105;11.6462;Kreuth-Glashütte;Bayern
2749;2004-08-01;2022-02-16;52;54.0805;11.7425;Gersdorf;Mecklenburg-Vorpommern
2750;2005-11-01;2022-02-16;310;50.2524;11.3209;Kronach;Bayern
2759;2006-01-10;2022-02-16;873;47.5041;11.2814;Krün;Bayern
2763;2005-12-01;2022-02-16;1;53.5039;7.1217;Norden-Leybuchtpolder;Niedersachsen
2779;2004-11-01;2022-02-16;63;53.1486;12.0851;Kuhbier;Brandenburg
2787;2005-01-01;2022-02-16;354;49.2428;9.6786;Kupferzell-Rechbach;Baden-Württemberg
2792;2004-08-01;2022-02-16;498;48.3737;10.7604;Diedorf/Schwaben-Biburg;Bayern
2794;1995-09-01;2022-02-16;40;52.9362;12.4093;Kyritz;Brandenburg
2810;2006-12-01;2022-02-16;150;51.9446;8.7749;Lage, Kreis Lippe-Hörste;Nordrhein-Westfalen
2812;1996-03-27;2022-02-16;156;48.3647;7.828;Lahr;Baden-Württemberg
2814;2002-11-01;2022-02-16;687;48.5122;9.7644;Merklingen;Baden-Württemberg
2822;2004-10-01;2022-02-16;25;53.6369;9.0979;Lamstedt;Niedersachsen
2825;2004-09-11;2011-08-03;525;49.2845;7.9124;Landau-Taubensuhl;Rheinland-Pfalz
2839;2006-12-01;2022-02-16;210;51.9262;10.3461;Langelsheim-Astfeld;Niedersachsen
2843;2000-08-16;2015-12-31;125;50.0075;8.6547;Langen (BZ);Hessen
2844;2007-10-01;2022-02-16;13;53.6956;8.6291;Langen-Holßel, Kreis Cuxhaven;Niedersachsen
2850;2006-11-01;2022-02-16;778;48.1994;9.3327;Langenenslingen-Ittenhausen;Baden-Württemberg
2856;2004-07-01;2022-02-16;91;51.9173;13.0878;Langenlipsdorf;Brandenburg
2860;2004-12-01;2022-02-16;371;49.5076;10.7885;Langenzenn;Bayern
2878;2017-08-01;2022-02-16;117;51.3909;11.8786;Lauchstädt, Bad;Sachsen-Anhalt
2880;2005-07-11;2022-02-16;319;49.5522;9.6345;Lauda-Königshofen-Heckfeld;Baden-Württemberg
2884;2010-01-01;2022-02-16;310;49.5042;11.2736;Lauf/Pegnitz (Kläranlage);Bayern
2885;2006-01-04;2022-02-16;430;47.9522;12.8978;Laufen/Obb.-Lebenau;Bayern
2890;2006-09-01;2022-02-16;305;51.5957;10.463;Lauterberg,Bad-Bartolfelde;Niedersachsen
2900;2007-12-01;2022-02-16;208;49.709;8.6908;Lautertal/Odenwald-Reichenbach;Hessen
2907;1999-02-01;2022-02-16;7;54.7903;8.9514;Leck;Schleswig-Holstein
2925;1995-09-01;2022-02-16;356;51.3932;10.3123;Leinefelde;Thüringen
2928;1997-04-07;2022-02-16;138;51.3151;12.4462;Leipzig-Holzhausen;Sachsen
2932;1995-09-01;2022-02-16;131;51.4347;12.2396;Leipzig/Halle;Sachsen
2947;2006-10-01;2022-02-16;286;51.1333;8.0348;Lennestadt-Theten;Nordrhein-Westfalen
2951;2004-06-01;2022-02-16;20;53.1007;11.4864;Lenzen/Elbe;Brandenburg
2953;2007-04-01;2022-02-16;854;47.8597;8.2308;Lenzkirch-Ruhbühl;Baden-Württemberg
2958;2004-10-01;2022-02-16;204;51.0265;14.9357;Ostritz;Sachsen
2968;2008-12-01;2022-02-16;43;50.9894;6.9777;Köln-Stammheim;Nordrhein-Westfalen
2985;1995-09-01;2022-02-16;321;50.9383;14.2094;Lichtenhain-Mittelndorf;Sachsen
2988;2004-07-01;2022-02-16;162;51.4882;9.2493;Liebenau-Haueda;Hessen
2992;2004-11-01;2022-02-16;495;50.5276;11.6604;Remptendorf;Thüringen
2996;2006-10-09;2016-10-27;352;48.7726;8.7287;Liebenzell, Bad;Baden-Württemberg
2997;2004-07-01;2022-02-16;47;51.9861;14.3044;Lieberose;Brandenburg
2999;2004-07-01;2022-02-16;55;52.1211;7.8699;Lienen-Kattenvenne;Nordrhein-Westfalen
3012;2004-11-05;2022-02-16;750;49.0315;13.3272;Lindberg-Buchenau;Bayern
3015;1995-09-01;2022-02-16;98;52.2085;14.118;Lindenberg;Brandenburg
3023;1995-09-01;2016-12-31;22;52.5181;7.3081;Lingen;Niedersachsen
3024;2004-09-11;2022-02-16;485;50.094;7.5675;Lingerhahn/Hunsrück;Rheinland-Pfalz
3028;1995-09-01;2022-02-16;157;51.7854;8.8388;Lippspringe, Bad;Nordrhein-Westfalen
3031;2004-07-01;2022-02-16;92;51.6336;8.3945;Lippstadt-Bökenförde;Nordrhein-Westfalen
3032;1995-11-30;2022-02-16;25;55.011;8.4125;List auf Sylt;Schleswig-Holstein
3034;2007-01-01;2022-02-16;496;50.4505;11.635;Lobenstein, Bad;Thüringen
3042;2008-06-01;2022-02-16;230;50.5617;8.2386;Löhnberg-Obershausen;Hessen
3044;2007-07-01;2018-06-01;22;52.7198;7.7472;Löningen;Niedersachsen
3080;2004-10-01;2022-02-16;521;50.5131;11.3664;Ludwigsstadt-Lauenstein;Bayern
3081;2007-12-01;2022-02-16;65;52.3452;8.6477;Espelkamp-Isenstedt;Nordrhein-Westfalen
3083;2005-01-01;2022-02-16;57;51.9267;13.8797;Lübben-Blumenfelde;Brandenburg
3086;1996-06-26;2022-02-16;15;53.8025;10.6989;Lübeck-Blankensee;Schleswig-Holstein
3093;1995-09-01;2022-02-16;16;52.9724;11.1374;Lüchow;Niedersachsen
3094;2006-11-01;2022-02-16;166;51.3122;14.0499;Kamenz-Cunnersdorf;Sachsen
3098;1995-09-01;2022-02-16;387;51.2452;7.6425;Lüdenscheid;Nordrhein-Westfalen
3121;2004-09-01;2022-02-16;677;49.9113;12.5276;Mähring;Bayern
3126;1995-09-01;2022-02-16;79;52.1029;11.5827;Magdeburg;Sachsen-Anhalt
3136;2002-11-01;2022-02-16;102;50.1294;8.8209;Mühlheim/Main;Hessen
3137;2008-05-01;2022-02-16;195;49.9656;8.2139;Mainz-Lerchenberg (ZDF);Rheinland-Pfalz
3146;2004-11-01;2022-02-16;31;53.2141;11.3686;Malk Göhren;Mecklenburg-Vorpommern
3147;2013-09-01;2020-08-03;390;48.7548;12.2118;Mallersdorf-Pfaffenberg-Oberlindhart;Bayern
3148;2006-11-01;2007-06-19;40;53.2113;11.3247;Malliß;Mecklenburg-Vorpommern
3153;2004-10-01;2022-02-16;449;48.6189;12.6233;Mamming-Schneiderberg;Bayern
3155;2004-08-01;2022-02-16;413;50.1015;6.8009;Manderscheid-Sonnenhof;Rheinland-Pfalz
3158;1995-09-01;2022-02-16;12;52.5468;14.5453;Manschnow;Brandenburg
3164;2006-07-01;2022-02-16;187;50.8492;8.7745;Cölbe, Kr. Marburg-Biedenkopf;Hessen
3166;1995-09-01;2022-02-16;639;50.651;13.1469;Marienberg;Sachsen
3167;1999-05-27;2022-02-16;547;50.6621;7.9603;Marienberg, Bad;Rheinland-Pfalz
3175;2006-11-01;2022-02-16;504;50.5219;12.8282;Raschau;Sachsen
3179;2004-08-01;2022-02-16;320;49.666;10.3851;Markt Bibart;Bayern
3181;2021-08-01;2022-02-16;360;49.4875;10.6277;Markt Erlbach-Hagenhofen;Bayern
3190;2004-10-04;2022-02-16;790;47.7196;10.6433;Marktoberdorf-Sulzschneid;Bayern
3192;2005-03-01;2022-02-16;506;47.7046;13.0372;Marktschellenberg;Bayern
3196;1995-09-01;2022-02-16;81;53.3222;11.9321;Marnitz;Mecklenburg-Vorpommern
3204;2008-07-01;2022-02-16;429;50.7335;10.8815;Martinroda;Thüringen
3205;2005-08-01;2022-02-16;33;52.6579;13.179;Marwitz (Wasserwerk);Brandenburg
3207;2004-12-01;2022-02-16;328;50.1798;10.272;Maßbach;Bayern
3215;2007-06-01;2022-02-16;375;51.1683;8.7125;Medebach-Berge;Nordrhein-Westfalen
3217;2006-08-01;2022-02-16;22;54.8373;9.1481;Weesby;Schleswig-Holstein
3220;2006-01-09;2022-02-16;450;50.3571;10.8832;Meeder-Ottowind;Bayern
3226;2006-08-01;2022-02-16;107;51.7259;11.5109;Aschersleben-Mehringen;Sachsen-Anhalt
3231;1995-09-01;2022-02-16;450;50.5611;10.3771;Meiningen;Thüringen
3234;2005-02-01;2022-02-16;158;51.1294;13.4328;Garsebach bei Meißen;Sachsen
3238;2011-06-01;2022-02-16;2;53.9497;13.9742;Dewichow;Mecklenburg-Vorpommern
3244;2009-08-01;2022-02-16;614;47.9821;10.1384;Memmingen;Bayern
3247;2007-05-01;2022-02-16;559;48.0557;9.3185;Mengen-Ennetach;Baden-Württemberg
3248;2007-04-01;2022-02-16;516;50.3904;11.1324;Frankenblick-Mengersgereuth-Hämmern;Thüringen
3257;2004-06-01;2022-02-16;251;49.4773;9.7622;Mergentheim, Bad-Neunkirchen;Baden-Württemberg
3258;2006-01-11;2022-02-16;510;48.2708;10.9768;Mering (Bauhof);Bayern
3263;2004-09-01;2022-02-16;171;49.4566;6.6266;Merzig;Saarland
3268;2013-10-02;2022-02-16;900;48.1694;8.9433;Meßstetten-Appental;Baden-Württemberg
3271;2004-11-01;2022-02-16;314;48.8548;12.9189;Metten;Bayern
3272;2004-09-11;2011-04-28;89;49.7395;8.3288;Mettenheim/Rheinh.;Rheinland-Pfalz
3278;2003-01-05;2022-02-16;354;48.5377;9.2734;Metzingen;Baden-Württemberg
3279;2002-11-01;2022-02-16;173;51.0452;12.2989;Meuselwitz;Thüringen
3280;2004-07-01;2022-02-16;98;53.3083;12.2937;Meyenburg;Brandenburg
3284;2005-05-01;2022-02-16;240;49.6692;9.0085;Michelstadt;Hessen
3287;1995-09-01;2022-02-16;453;49.7177;9.0997;Michelstadt-Vielbrunn;Hessen
3289;2004-11-10;2022-02-16;356;50.7281;11.7838;Schmieritz-Weltwitz;Thüringen
3293;2006-01-01;2022-02-16;590;48.064;10.4839;Mindelheim;Bayern
3297;2005-07-01;2022-02-16;64;53.2681;12.7221;Krümmel;Mecklenburg-Vorpommern
3304;2007-04-01;2022-02-16;294;51.2327;10.7694;Freienbessingen;Thüringen
3307;2008-04-01;2022-02-16;984;47.4779;11.2653;Mittenwald-Buckelwiesen;Bayern
3308;2005-08-01;2022-02-16;74;53.1846;13.6545;Mittenwalde/Uckermark;Brandenburg
3319;2006-09-01;2022-02-16;239;49.7644;9.253;Röllbach;Bayern
3321;2005-07-01;2022-02-16;77;51.1313;6.3609;Mönchengladbach-Hilderath;Nordrhein-Westfalen
3328;2021-02-01;2022-02-16;19;51.4769;6.6101;Moers-Repelen;Nordrhein-Westfalen
3339;2006-09-01;2022-02-16;541;50.5202;6.2084;Monschau-Kalterherberg;Nordrhein-Westfalen
3340;2005-05-01;2022-02-16;265;50.4383;7.8061;Montabaur;Rheinland-Pfalz
3342;2005-03-01;2022-02-16;0;53.311;7.4329;Moormerland-Neermoor;Niedersachsen
3348;2004-06-01;2022-02-16;240;51.7209;9.8352;Moringen-Lutterbeck;Niedersachsen
3362;1995-09-01;2022-02-16;243;48.9721;8.8735;Mühlacker;Baden-Württemberg
3364;2004-07-01;2022-02-16;286;50.8681;10.8211;Drei Gleichen-Mühlberg;Thüringen
3366;1995-09-01;2022-02-16;406;48.279;12.5024;Mühldorf;Bayern
3376;2004-06-01;2022-02-16;63;52.5176;14.1232;Müncheberg;Brandenburg
3379;1997-07-07;2022-02-16;515;48.1632;11.5429;München-Stadt;Bayern
3402;2002-11-01;2022-02-16;755;48.3851;9.4837;Münsingen-Apfelstetten;Baden-Württemberg
3413;2004-07-01;2022-02-16;155;50.4522;8.7317;Münzenberg-Gambach;Hessen
3418;2007-01-01;2022-02-16;594;48.2754;9.6355;Ehingen-Kirchen;Baden-Württemberg
3426;2004-06-01;2022-02-16;127;51.566;14.7008;Muskau, Bad;Sachsen
3429;2006-01-11;2022-02-16;366;49.4497;12.1874;Nabburg (Flussmeisterstelle);Bayern
3432;2005-04-15;2022-02-16;380;48.5675;8.7179;Nagold;Baden-Württemberg
3435;2002-11-01;2022-02-16;477;48.5235;11.8398;Nandlstadt;Bayern
3438;2004-12-01;2022-02-16;401;48.8016;11.2181;Nassenfels;Bayern
3440;2005-09-01;2022-02-16;530;48.7071;10.2997;Nattheim-Fleinheim;Baden-Württemberg
3442;2004-10-01;2022-02-16;149;50.3574;8.7506;Nauheim, Bad;Hessen
3443;2004-12-01;2017-07-01;304;51.2748;9.1975;Naumburg-Altenstädt;Hessen
3445;2004-11-01;2022-02-16;100;51.9245;12.8888;Jessen (Elster)-Naundorf;Sachsen-Anhalt
3448;2010-06-10;2022-02-16;117;49.3945;8.8046;Neckargemünd-Kleingemünd;Baden-Württemberg
3473;2004-11-20;2022-02-16;89;53.0528;12.7562;Neuruppin-Gühlen Glienicke;Brandenburg
3478;1995-09-01;2005-08-17;81;53.5468;13.1914;Neubrandenburg;Mecklenburg-Vorpommern
3485;2005-05-01;2022-02-16;486;48.3115;10.3773;Neuburg/Kammel-Langenhaslach;Bayern
3490;2004-09-01;2022-02-16;111;50.5346;7.0853;Neuenahr, Bad-Ahrweiler;Rheinland-Pfalz
3491;2004-06-01;2022-02-16;738;50.441;11.2401;Föritztal-Neuenbau;Thüringen
3497;2004-10-01;2022-02-16;336;50.1226;11.5596;Ludwigschorgast;Bayern
3499;2006-07-01;2022-02-16;292;51.2915;7.853;Neuenrade-Blintrop;Nordrhein-Westfalen
3509;2004-10-01;2022-02-16;78;53.102;13.0421;Menz;Brandenburg
3513;1995-09-01;2022-02-16;845;50.5002;11.1344;Neuhaus am Rennweg;Thüringen
3519;2005-03-01;2022-02-16;663;47.9519;8.9932;Neuhausen ob Eck-Unterschwandorf;Baden-Württemberg
3525;2003-04-29;2022-02-16;460;49.2586;12.9601;Neukirchen bei Heiligen Blut;Bayern
3527;2004-05-01;2022-02-16;500;50.8923;9.405;Neukirchen-Hauptschwenda;Hessen
3535;2006-01-11;2022-02-16;438;48.3658;12.5211;Neumarkt-Sankt Veit (Kläranlage);Bayern
3536;2003-04-29;2022-02-16;420;49.2835;11.4525;Neumarkt/Oberpfalz;Bayern
3538;1995-09-01;1995-10-23;20;54.0833;9.9333;Neumünster-Wasbek;Schleswig-Holstein
3540;2004-11-01;2022-02-16;195;50.8446;7.372;Neunkirchen-Seelscheid-Krawinkel;Nordrhein-Westfalen
3545;2005-03-01;2022-02-16;236;49.344;7.2297;Neunkirchen-Wellesweiler;Saarland
3552;1995-09-01;2019-04-08;38;52.9037;12.8072;Neuruppin;Brandenburg
3558;2006-12-01;2022-02-16;41;52.5;9.4941;Neustadt am Rübenberge;Niedersachsen
3560;2004-03-01;2022-02-16;230;50.3039;10.176;Neustadt, Bad;Bayern
3564;2005-02-01;2022-02-16;35;53.4571;11.5687;Neustadt-Glewe-Friedrichsmoor;Mecklenburg-Vorpommern
3571;2008-03-01;2022-02-16;452;49.8174;11.8638;Neustadt am Kulm-Filchendorf;Bayern
3572;2006-01-09;2022-02-16;330;50.3198;11.1104;Neustadt bei Coburg (Kläranlage);Bayern
3584;2004-07-01;2022-02-16;365;49.8135;6.5857;Newel;Rheinland-Pfalz
3589;2004-06-01;2022-02-16;162;50.2741;8.8653;Nidderau-Erbstadt;Hessen
3591;2004-06-01;2022-02-16;350;50.6743;6.424;Nideggen-Schmidt;Nordrhein-Westfalen
3602;2005-10-01;2022-02-16;421;50.1749;6.77;Oberstadtfeld;Rheinland-Pfalz
3607;2004-10-01;2022-02-16;416;48.6106;12.4143;Loiching;Bayern
3612;2007-04-01;2022-02-16;25;52.6711;9.2229;Nienburg;Niedersachsen
3616;2004-09-11;2022-02-16;306;50.6603;7.805;Hachenburg/Westerwaldkreis;Rheinland-Pfalz
3617;2005-01-01;2022-02-16;431;49.1658;12.2788;Nittenau-Harting;Bayern
3621;2006-01-01;2022-02-16;435;48.8253;10.5067;Reimlingen;Bayern
3625;2004-09-01;2022-02-16;403;49.5568;7.0716;Nohfelden-Gonnesweiler;Saarland
3631;1995-09-01;2022-02-16;12;53.7123;7.1519;Norderney;Niedersachsen
3650;2004-12-01;2022-02-16;212;51.763;10.0416;Northeim-Imbshausen;Niedersachsen
3660;1995-09-01;2022-02-16;485;50.3602;6.8697;Nürburg-Barweiler;Rheinland-Pfalz
3667;2005-03-01;2022-02-16;369;49.4258;11.2539;Nürnberg-Netzstall;Bayern
3668;1995-09-01;2022-02-16;314;49.503;11.0549;Nürnberg;Bayern
3677;2004-09-01;2022-02-16;832;47.603;11.0607;Oberammergau;Bayern
3679;2006-11-01;2022-02-16;518;47.6187;12.1665;Kiefersfelden-Gach;Bayern
3681;2006-01-05;2022-02-16;426;49.9185;10.5963;Oberaurach-Fatschenbrunn;Bayern
3690;2006-10-10;2022-02-16;372;48.3862;8.1426;Oberharmersbach;Baden-Württemberg
3700;2005-11-01;2022-02-16;472;50.2661;9.7727;Oberleichtersbach-Modlos;Bayern
3704;2006-10-10;2022-02-16;516;48.2851;8.5764;Oberndorf/Neckar;Baden-Württemberg
3714;2004-09-01;2022-02-16;896;47.5538;9.9406;Oberreute;Bayern
3722;2005-01-01;2022-02-16;484;48.2443;11.5528;Oberschleißheim;Bayern
3729;2005-04-19;2022-02-16;748;47.5577;10.0938;Oberstaufen-Thalkirchdorf;Bayern
3730;1995-09-01;2022-02-16;806;47.3984;10.2759;Oberstdorf;Bayern
3733;2006-10-10;2016-10-20;468;49.0495;9.3923;Oberstenfeld-Prevorst;Baden-Württemberg
3734;2004-07-01;2022-02-16;230;49.128;9.3525;Obersulm-Willsbach;Baden-Württemberg
3739;2005-03-01;2022-02-16;596;49.4521;12.4365;Oberviechtach;Bayern
3740;2008-04-01;2022-02-16;195;50.9933;13.9808;Lohmen/Sachsen;Sachsen
3761;1995-09-01;2022-02-16;276;49.207;9.5176;Öhringen;Baden-Württemberg
3791;1998-09-30;2012-10-01;11;53.1763;8.1824;Oldenburg;Niedersachsen
3795;2004-12-01;2022-02-16;49;51.7066;7.3564;Olfen;Nordrhein-Westfalen
3802;2006-10-10;2016-10-27;315;48.4765;8.1624;Oppenau;Baden-Württemberg
3811;1995-09-01;2022-02-16;150;51.296;13.0928;Oschatz;Sachsen
3815;1995-09-01;2010-11-30;95;52.2553;8.0534;Osnabrück;Niedersachsen
3820;2007-11-01;2022-02-16;52;52.3657;8.2013;Ostercappeln-Schwagstorf;Niedersachsen
3821;1995-09-01;2022-02-16;246;51.0873;11.9293;Osterfeld;Sachsen-Anhalt
3836;2006-03-01;2022-02-16;314;50.4538;10.2211;Ostheim v.d. Rhön;Bayern
3844;2009-07-01;2022-02-16;295;51.9473;9.3999;Ottenstein;Niedersachsen
3848;2005-09-01;2022-02-16;17;53.1403;9.1517;Ottersberg-Otterstedt;Niedersachsen
3849;2005-03-01;2022-02-16;667;47.9303;10.31;Ottobeuren;Bayern
3853;2004-11-01;2022-02-16;2;53.3819;8.4493;Ovelgönne;Niedersachsen
3857;2005-01-01;2022-02-16;886;47.6362;10.3892;Oy-Mittelberg-Petersthal;Bayern
3875;2005-01-01;2022-02-16;549;49.151;11.6896;Parsberg/Oberpfalz-Eglwang;Bayern
3881;2004-11-01;2022-02-16;12;53.142;14.1074;Passow;Brandenburg
3886;2006-01-11;2022-02-16;420;49.7408;11.5528;Pegnitz (Kläranlage);Bayern
3897;1995-09-01;2022-02-16;2;54.0893;10.8773;Pelzerhaken;Schleswig-Holstein
3904;2004-09-01;2022-02-16;152;49.5354;6.3789;Perl-Nennig;Saarland
3906;2004-05-01;2022-02-16;40;53.0952;11.8603;Perleberg;Brandenburg
3911;2004-07-01;2022-02-16;305;50.6175;9.725;Petersberg-Marbach;Hessen
3913;2004-07-01;2022-02-16;43;52.3817;9.0176;Petershagen;Nordrhein-Westfalen
3919;2004-09-01;2022-02-16;381;48.4252;12.9924;Pfarrkirchen;Bayern
3925;2005-09-01;2022-02-16;332;48.9329;8.6973;Pforzheim-Ispringen;Baden-Württemberg
3927;2004-07-01;2022-02-16;630;47.9345;9.2869;Pfullendorf;Baden-Württemberg
3939;2004-10-01;2022-02-16;385;49.1912;7.5879;Pirmasens;Rheinland-Pfalz
3945;2005-03-01;2022-02-16;66;53.4584;12.2417;Plau am See;Mecklenburg-Vorpommern
3946;1995-09-01;2022-02-16;387;50.4818;12.13;Plauen;Sachsen
3948;2004-09-01;2022-02-16;443;49.649;11.4685;Plech;Bayern
3950;2003-04-18;2022-02-16;380;49.1248;10.9731;Pleinfeld-Mandlesmühle;Bayern
3960;2004-09-01;2022-02-16;323;48.3952;13.3139;Pocking;Bayern
3965;2007-12-01;2022-02-16;5;54.1034;13.1533;Süderholz-Neuendorf;Mecklenburg-Vorpommern
3967;2005-04-01;2022-02-16;70;52.1836;14.5748;Pohlitz;Brandenburg
3969;2004-09-22;2022-02-16;235;50.3049;7.31;Polch, Kr. Mayen-Koblenz;Rheinland-Pfalz
3972;2002-11-01;2022-02-16;510;48.9343;10.7586;Polsingen-Döckingen;Bayern
3975;2005-03-01;2022-02-16;522;49.4777;11.5357;Pommelsbrunn-Mittelburg;Bayern
3987;1995-09-01;2022-02-16;81;52.3813;13.0622;Potsdam;Brandenburg
3999;2004-11-01;2022-02-16;597;49.7844;12.0331;Pressath-Mühlberg;Bayern
4000;2003-04-28;2022-02-16;640;50.2277;11.5486;Presseck;Bayern
4016;2005-03-01;2022-02-16;284;49.8526;10.1006;Prosselsheim-Seligenstadt;Bayern
4017;2002-11-01;2022-02-16;386;50.1807;6.3509;Prüm-Watzerath;Rheinland-Pfalz
4023;2010-04-01;2022-02-16;270;51.2006;14.0207;Pulsnitz;Sachsen
4024;1995-09-01;2022-02-16;40;54.3643;13.4771;Putbus;Mecklenburg-Vorpommern
4026;1995-09-01;1996-07-09;1;54.5;11.2167;Puttgarden;Schleswig-Holstein
4032;2006-12-01;2022-02-16;142;51.7953;11.132;Quedlinburg;Sachsen-Anhalt
4036;2007-03-01;2022-02-16;204;51.3895;11.5412;Querfurt-Mühle Lodersleben;Sachsen-Anhalt
4039;1996-02-07;2022-02-16;11;53.7331;9.8776;Quickborn;Schleswig-Holstein
4052;2007-12-01;2022-02-16;94;51.7557;12.5104;Kemberg-Radis;Sachsen-Anhalt
4063;2003-07-01;2022-02-16;41;52.4461;8.5906;Rahden-Kleinendorf;Nordrhein-Westfalen
4065;2004-07-01;2022-02-16;462;48.6192;11.0059;Rain am Lech-Wallerdorf;Bayern
4078;2005-12-01;2022-02-16;16;53.2427;8.2237;Rastede;Niedersachsen
4080;2005-09-01;2022-02-16;10;53.7409;13.7906;Rathebur;Mecklenburg-Vorpommern
4090;2005-08-01;2022-02-16;89;50.0056;8.4291;Raunheim;Hessen
4094;2004-06-01;2022-02-16;441;47.8062;9.6206;Weingarten, Kr. Ravensburg;Baden-Württemberg
4101;2004-08-01;2022-02-16;16;53.3469;11.1992;Redefin;Mecklenburg-Vorpommern
4104;1995-09-01;2022-02-16;365;49.0425;12.1019;Regensburg;Bayern
4109;2004-10-01;2022-02-16;586;50.2214;12.0275;Rehau;Bayern
4112;2006-12-01;2022-02-16;60;52.4396;9.1335;Rehburg-Loccum;Niedersachsen
4127;2005-01-01;2022-02-16;347;50.9906;7.6958;Reichshof-Eckenhagen;Nordrhein-Westfalen
4132;2002-11-01;2022-02-16;115;51.4841;9.6121;Reinhardshagen-Vaake;Hessen
4134;2002-11-01;2018-11-01;172;49.8366;8.8806;Otzberg-Habitzheim;Hessen
4135;2007-06-01;2022-02-16;336;51.4248;10.1898;Reinholterode;Thüringen
4150;2005-12-01;2022-02-16;59;51.8118;7.0907;Reken;Nordrhein-Westfalen
4154;2011-02-01;2018-07-01;345;51.18;7.2505;Remscheid-Lennep;Nordrhein-Westfalen
4159;2004-12-01;2022-02-16;522;48.8104;10.9359;Tagmersheim-Blossenau;Bayern
4160;2004-07-01;2022-02-16;478;48.7425;8.924;Renningen-Ihinger Hof;Baden-Württemberg
4167;2008-10-01;2013-07-11;370;49.8633;7.3378;Rhaunen;Rheinland-Pfalz
4169;2002-11-01;2022-02-16;131;48.6703;7.9939;Rheinau-Memprechtshofen;Baden-Württemberg
4175;2004-06-01;2022-02-16;283;47.559;7.7721;Rheinfelden;Baden-Württemberg
4177;2008-11-01;2022-02-16;116;48.9726;8.3301;Rheinstetten;Baden-Württemberg
4185;2004-09-01;2022-02-16;363;48.9557;11.7278;Riedenburg;Bayern
4189;2004-08-01;2022-02-16;534;48.1479;9.4596;Altheim, Kreis Biberach;Baden-Württemberg
4211;2005-04-15;2022-02-16;493;48.4245;8.3303;Rippoldsau, Bad;Baden-Württemberg
4218;2004-03-17;2022-02-16;300;50.3311;10.7918;Rodach (Kläranlage);Bayern
4219;2004-10-01;2022-02-16;512;50.3965;6.8568;Rodder;Rheinland-Pfalz
4224;2005-09-01;2022-02-16;388;49.2412;12.4125;Roding-Neubäu;Bayern
4230;2002-11-01;2022-02-16;137;49.9832;8.8395;Rödermark-Ober-Roden;Hessen
4248;2002-11-01;2022-02-16;402;49.3082;10.9183;Rohr/Mittelfranken-Dechendorf;Bayern
4251;2005-06-11;2022-02-16;1067;47.4069;10.1676;Oberstdorf-Rohrmoos;Bayern
4261;2006-03-01;2022-02-16;442;47.8753;12.128;Rosenheim;Bayern
4271;1995-09-01;2022-02-16;4;54.1803;12.0808;Rostock-Warnemünde;Mecklenburg-Vorpommern
4275;2004-12-01;2022-02-16;32;53.1288;9.3398;Rotenburg (Wümme);Niedersachsen
4280;2010-07-08;2022-02-16;386;49.2162;11.1035;Roth;Bayern
4282;2004-10-01;2022-02-16;24;53.5954;13.8121;Rothemühl;Mecklenburg-Vorpommern
4287;2005-01-01;2022-02-16;415;49.3848;10.1732;Rothenburg ob der Tauber;Bayern
4288;2005-12-01;2022-02-16;95;52.1038;8.1808;Rothenfelde, Bad;Niedersachsen
4290;2004-09-01;2017-04-18;14;53.5169;14.2044;Rothenklempenow;Mecklenburg-Vorpommern
4294;2004-10-26;2022-02-16;360;48.4704;8.9687;Rottenburg-Kiebingen;Baden-Württemberg
4300;2004-07-01;2022-02-16;589;48.1815;8.6356;Rottweil;Baden-Württemberg
4301;2005-03-01;2022-02-16;102;49.8502;7.871;Kreuznach, Bad;Rheinland-Pfalz
4303;2004-10-01;2005-10-13;395;48.6532;13.4233;Ruderting;Bayern
4308;2002-11-01;2022-02-16;403;50.0517;7.8876;Rüdesheim-Presberg;Hessen
4310;2004-07-01;2022-02-16;105;49.1609;8.3009;Rülzheim;Rheinland-Pfalz
4313;2004-08-01;2022-02-16;370;51.4966;8.4342;Rüthen;Nordrhein-Westfalen
4315;2005-09-01;2022-02-16;914;48.5615;8.2228;Baiersbronn-Ruhestein;Baden-Württemberg
4323;2005-03-01;2022-02-16;461;49.6468;7.8837;Ruppertsecken;Rheinland-Pfalz
4336;1996-06-20;2022-02-16;320;49.2128;7.1077;Saarbrücken-Ensheim;Saarland
4349;2004-06-01;2022-02-16;251;48.9569;9.0711;Sachsenheim;Baden-Württemberg
4351;2006-10-09;2022-02-16;295;47.5582;7.9773;Säckingen, Bad/ Rhein;Baden-Württemberg
4352;2007-09-01;2022-02-16;5;54.516;13.5313;Sagard;Mecklenburg-Vorpommern
4354;2006-01-01;2022-02-16;457;48.7832;13.3146;Saldenburg-Entschenreuth;Bayern
4367;2009-09-01;2022-02-16;175;52.0781;9.552;Salzhemmendorf-Lauenstein;Niedersachsen
4368;2004-10-01;2022-02-16;93;51.7098;8.5796;Salzkotten;Nordrhein-Westfalen
4371;1995-09-01;2022-02-16;135;52.1042;8.7521;Salzuflen, Bad;Nordrhein-Westfalen
4374;2004-03-15;2022-02-16;687;47.7774;12.2102;Samerberg-Geisenkam;Bayern
4377;2005-09-01;2022-02-16;518;50.3518;10.0034;Sandberg;Bayern
4387;2004-08-01;2022-02-16;805;49.0029;12.8237;Sankt Englmar;Bayern
4393;1999-11-30;2022-02-16;5;54.3279;8.6031;Sankt Peter-Ording;Schleswig-Holstein
4400;2004-08-01;2022-02-16;171;51.5439;8.1808;Sassendorf, Bad-Beusingsen;Nordrhein-Westfalen
4405;2006-03-01;2022-02-16;35;54.6854;9.6261;Satrup;Schleswig-Holstein
4411;2004-05-01;2022-02-16;155;49.9195;8.9671;Schaafheim-Schlierbach;Hessen
4412;2004-11-01;2022-02-16;95;52.198;11.4218;Schackensleben;Sachsen-Anhalt
4413;2004-10-01;2022-02-16;555;47.9767;11.4693;Schäftlarn-Kloster Schäftlarn;Bayern
4441;2004-05-01;2022-02-16;479;48.5025;11.4543;Scheyern;Bayern
4445;2004-09-01;2022-02-16;609;51.7658;10.6533;Wernigerode-Schierke;Sachsen-Anhalt
4464;1995-09-01;2022-02-16;501;50.5679;11.8041;Schleiz;Thüringen
4466;1995-09-01;2022-02-16;43;54.5275;9.5487;Schleswig;Schleswig-Holstein
4469;2006-08-01;2022-02-16;399;50.5071;10.762;Schleusingen;Thüringen
4480;2004-09-01;2022-02-16;230;50.3447;9.5533;Schlüchtern-Herolz;Hessen
4485;2005-02-01;2017-03-01;296;50.725;10.4539;Schmalkalden, Kurort;Thüringen
4488;2006-08-01;2022-02-16;443;51.2127;8.2672;Schmallenberg-Sellinghausen;Nordrhein-Westfalen
4490;2004-07-01;2022-02-16;223;49.4149;6.836;Schmelz-Hüttersdorf;Saarland
4493;2005-04-01;2022-02-16;417;49.4116;12.076;Schmidgaden;Bayern
4494;2005-02-01;2022-02-16;455;49.2806;11.914;Schmidmühlen;Bayern
4501;1995-09-01;2022-02-16;937;50.6545;10.7696;Schmücke;Thüringen
4508;2004-08-01;2022-02-16;649;50.2968;6.4194;Schneifelforsthaus;Rheinland-Pfalz
4546;2004-11-01;2022-02-16;684;49.5273;12.5705;Schönsee-Dietersdorf;Bayern
4548;2007-07-01;2022-02-16;608;50.1847;12.0791;Schönwald/Ofr.-Brunn;Bayern
4555;2006-10-01;2022-02-16;29;52.663;12.1812;Schollene;Sachsen-Anhalt
4559;2005-05-01;2022-02-16;398;49.1644;12.6175;Schorndorf-Knöbling;Bayern
4560;2005-02-01;2022-01-02;265;50.4925;9.1226;Schotten;Hessen
4566;2004-05-01;2013-09-01;46;52.9738;12.1115;Schrepkow;Brandenburg
4567;2004-06-01;2020-06-22;417;48.5532;11.2844;Schrobenhausen;Bayern
4579;2003-04-28;2022-02-16;538;48.2008;10.7293;Schwabmünchen;Bayern
4592;2005-12-01;2022-02-16;356;49.3278;12.0871;Schwandorf;Bayern
4594;2005-12-01;2022-02-16;1;53.2338;8.5115;Schwanewede-Neuenkirchen;Niedersachsen
4599;2005-01-01;2022-02-16;331;49.3425;11.1077;Wendelstein-Kleinschwarzenlohe;Bayern
4600;2005-07-01;2022-02-16;12;52.9081;9.0453;Schwarme;Niedersachsen
4601;2007-08-01;2022-02-16;28;52.6797;9.6524;Essel;Niedersachsen
4602;2008-12-01;2022-02-16;26;53.9385;10.6983;Schwartau,Bad -Groß Parin;Schleswig-Holstein
4603;2004-04-23;2022-02-16;188;49.7975;10.2191;Schwarzach/Main (Klärwerk);Bayern
4605;2004-11-01;2022-02-16;277;50.6441;11.1936;Schwarzburg;Thüringen
4617;2006-11-01;2022-02-16;1368;47.6701;11.8544;Obere Firstalm/Schlierseer Berge;Bayern
4618;2004-11-01;2022-02-16;30;52.747;11.9792;Schwarzholz;Sachsen-Anhalt
4623;2005-06-14;2020-05-01;834;48.1042;8.9976;Schwenningen, Kreis Sigmaringen;Baden-Württemberg
4625;1995-09-01;2022-02-16;59;53.6424;11.3871;Schwerin;Mecklenburg-Vorpommern
4637;2008-08-01;2022-02-16;31;52.5404;13.1243;Staaken;Brandenburg
4641;2006-01-18;2022-02-16;802;47.6711;10.6271;Seeg (Kläranlage);Bayern
4642;1995-09-01;2022-02-16;21;52.8911;11.7297;Seehausen;Sachsen-Anhalt
4650;2004-09-12;2022-02-16;344;49.8417;7.5541;Seesbach/Nahe;Rheinland-Pfalz
4651;2004-11-01;2022-02-16;186;51.904;10.1885;Seesen;Niedersachsen
4655;2006-10-10;2011-11-30;804;48.5975;8.4268;Seewald-Besenfeld;Baden-Württemberg
4666;2005-06-01;2022-02-16;40;54.3444;10.4581;Köhn;Schleswig-Holstein
4672;2004-09-12;2022-02-16;239;50.5218;7.7375;Selters;Rheinland-Pfalz
4683;2012-04-01;2022-02-16;46;52.516;7.6762;Fürstenau;Niedersachsen
4692;2008-03-01;2018-12-01;229;50.8534;7.9966;Siegen (Kläranlage);Nordrhein-Westfalen
4694;2006-01-04;2022-02-16;380;48.7629;11.843;Siegenburg (Kläranlage);Bayern
4703;2002-11-01;2022-02-16;581;48.0719;9.1943;Sigmaringen-Laiz;Baden-Württemberg
4704;2005-05-01;2022-02-16;508;47.5776;9.7404;Sigmarszell-Zeisertsweiler;Bayern
4706;2005-03-01;2022-02-16;358;48.2718;13.0273;Simbach/Inn;Bayern
4709;2011-11-01;2022-02-16;445;49.9996;7.5981;Simmern-Wahlbach;Rheinland-Pfalz
4710;2007-05-01;2022-02-16;718;48.6191;8.5247;Simmersfeld;Baden-Württemberg
4712;2006-06-19;2022-02-16;428;48.0821;8.0919;Simonswald-Obersimonswald;Baden-Württemberg
4719;1995-09-01;2007-08-28;169;49.2447;8.8787;Sinsheim;Baden-Württemberg
4741;2004-12-01;2022-02-16;152;51.14;7.093;Solingen-Hohenscheid;Nordrhein-Westfalen
4745;1995-09-01;2022-02-16;75;52.9604;9.793;Soltau;Niedersachsen
4748;2004-11-01;2010-12-31;221;51.352;10.9059;Sondershausen;Thüringen
4752;1995-09-01;2008-06-30;626;50.3746;11.1828;Sonneberg-Neufang;Thüringen
4755;2004-11-01;2022-02-16;847;48.6819;13.7351;Sonnen;Bayern
4760;2006-01-09;2022-02-16;730;47.5219;10.2613;Sonthofen (Flussmeisterstelle);Bayern
4763;2004-10-01;2022-02-16;265;51.0607;9.9266;Sontra;Hessen
4790;2006-03-01;2022-02-16;98;52.2054;9.5668;Springe;Niedersachsen
4801;2003-10-09;2019-09-23;460;50.007;11.2052;Stadelhofen;Bayern
4803;2009-09-01;2022-02-16;1;53.4926;8.3768;Butjadingen-Inte;Niedersachsen
4813;2020-08-01;2022-02-16;318;50.0806;11.0466;Staffelstein, Bad-Stublang;Bayern
4816;2004-10-07;2022-02-16;390;49.0568;12.6395;Stallwang;Bayern
4818;2004-10-01;2022-02-16;597;50.1531;11.7402;Stammbach-Querenbach;Bayern
4827;2005-01-17;2022-02-16;540;47.7941;12.486;Grassau;Bayern
4841;2004-07-01;2022-02-16;1;53.6946;8.8735;Steinau, Kr. Cuxhaven;Niedersachsen
4849;2005-06-01;2022-02-16;64;52.1173;7.3411;Steinfurt-Burgsteinfurt;Nordrhein-Westfalen
4850;2010-01-01;2022-02-16;779;47.7112;10.8758;Steingaden-Lauterbach;Bayern
4857;2004-09-01;2022-02-16;1;53.5534;9.6097;Mittelnkirchen-Hohenfelde;Niedersachsen
4858;2004-03-17;2022-02-16;485;48.3773;12.0927;Steinkirchen-Hofstarring;Bayern
4878;2005-02-01;2022-02-16;504;51.6646;10.8811;Oberharz am Brocken-Stiege;Sachsen-Anhalt
4881;2004-11-10;2022-02-16;532;47.8591;9.0152;Stockach;Baden-Württemberg
4883;2005-10-01;2022-02-16;18;52.7659;9.4046;Frankenfeld-Hedern;Niedersachsen
4887;1995-09-01;2022-02-16;734;48.6656;9.8648;Stötten;Baden-Württemberg
4896;2005-07-01;2022-02-16;40;54.6654;9.805;Wagersrott;Schleswig-Holstein
4911;1996-10-24;2022-02-16;351;48.8275;12.5597;Straubing;Bayern
4912;2006-07-01;2022-02-16;81;52.5884;13.9289;Strausberg;Brandenburg
4920;2009-09-01;2022-02-16;3;53.4252;8.804;Beverstedt;Niedersachsen
4926;2002-11-01;2013-05-14;224;48.7896;9.2167;Stuttgart (Neckartal);Baden-Württemberg
4928;1998-06-01;2022-02-16;314;48.8281;9.2;Stuttgart (Schnarrenberg);Baden-Württemberg
4931;1995-10-04;2022-02-16;371;48.6883;9.2235;Stuttgart-Echterdingen;Baden-Württemberg
4946;2004-06-01;2022-02-16;500;48.5151;11.6545;Schweitenkirchen-Sünzhausen;Bayern
4958;2005-03-01;2022-02-16;333;50.2417;10.567;Sulzdorf an der Lederhecke;Bayern
4978;2002-11-01;2022-02-16;395;50.639;10.0228;Tann/Rhön;Hessen
4982;2004-11-01;2022-02-16;532;50.6074;12.939;Tannenberg;Sachsen
4984;2004-11-01;2022-02-16;48;53.2252;14.33;Hohenreinkendorf;Brandenburg
4997;2005-03-01;2022-02-16;196;50.9771;12.3419;Starkenberg-Tegkwitz;Thüringen
5000;2005-02-01;2022-02-16;498;47.8526;12.8282;Teisendorf;Bayern
5002;2006-01-11;2022-02-16;450;49.0426;12.9942;Teisnach;Bayern
5009;1995-09-01;2022-02-16;38;53.761;12.5574;Teterow;Mecklenburg-Vorpommern
5013;2007-07-12;2022-02-16;350;49.2187;12.0624;Teublitz (Kläranlage);Bayern
5014;2004-07-01;2022-02-16;7;53.2758;8.9857;Worpswede-Hüttenbusch;Niedersachsen
5017;2005-11-01;2022-02-16;633;50.4002;11.3888;Teuschnitz;Bayern
5023;2002-11-01;2022-02-16;417;49.0871;11.2236;Thalmässing;Bayern
5029;1995-09-01;2022-02-16;386;49.4737;7.0385;Tholey;Saarland
5034;2006-03-01;2022-02-16;513;49.9842;11.4008;Thurnau-Tannfeld;Bayern
5036;2006-01-06;2022-02-16;470;49.4038;12.6062;Treffelstein-Witzelsmühle;Bayern
5046;2008-03-01;2022-02-16;501;49.8576;12.3542;Tirschenreuth-Lodermühl;Bayern
5047;2005-04-14;2010-12-15;870;47.9394;8.1933;Titisee-Neustadt-Langenordnach;Baden-Württemberg
5055;2004-03-17;2022-02-16;382;48.0669;12.7634;Tittmoning;Bayern
5057;2005-08-01;2022-02-16;26;54.1695;9.5559;Haale;Schleswig-Holstein
5058;2005-12-01;2022-02-16;55;53.6893;10.3657;Sprenge;Schleswig-Holstein
5059;2004-10-28;2022-02-16;781;47.7279;7.9988;Todtmoos;Baden-Württemberg
5064;2004-12-01;2022-02-16;37;51.2897;6.4437;Tönisvorst;Nordrhein-Westfalen
5084;2007-02-01;2022-02-16;290;51.1594;10.2473;Südeichsfeld-Wendehausen;Thüringen
5086;2002-11-01;2022-02-16;133;51.5777;9.4337;Trendelburg;Hessen
5097;2005-01-01;2022-02-16;10;54.0661;12.7675;Tribsees;Mecklenburg-Vorpommern
5099;2008-06-01;2022-02-16;132;49.7326;6.6131;Trier-Zewen;Rheinland-Pfalz
5100;2001-04-01;2022-02-16;265;49.7479;6.6583;Trier-Petrisberg;Rheinland-Pfalz
5103;2010-08-01;2022-02-16;348;49.3544;7.7948;Trippstadt-Neuhof;Rheinland-Pfalz
5109;2013-10-01;2022-02-16;69;53.5998;13.3039;Trollenhagen;Mecklenburg-Vorpommern
5111;2006-04-01;2022-02-16;560;48.0311;12.5396;Trostberg;Bayern
5123;2004-09-01;2022-02-16;413;48.208;12.6296;Tüßling;Bayern
5132;2005-09-01;2022-02-16;19;52.7432;7.075;Twist-Hebelermeer;Niedersachsen
5133;2004-09-01;2022-02-16;295;51.3344;8.9132;Twistetal-Mühlhausen;Hessen
5142;1995-09-01;2022-02-16;1;53.7445;14.0698;Ueckermünde;Mecklenburg-Vorpommern
5146;2004-06-01;2022-02-16;50;52.9414;10.5289;Uelzen;Niedersachsen
5148;2006-07-01;2022-02-16;60;52.4588;10.1888;Uetze;Niedersachsen
5149;2005-01-01;2022-02-16;306;49.5741;10.1915;Gollhofen;Bayern
5155;1995-09-01;2014-09-01;567;48.3837;9.9524;Ulm;Baden-Württemberg
5158;1995-09-01;2022-02-16;162;52.1601;11.1759;Ummendorf;Sachsen-Anhalt
5161;2004-09-01;2022-02-16;573;48.5599;13.7494;Untergriesbach-Glotzing;Bayern
5162;2005-01-01;2022-02-16;495;48.5995;13.6465;Untergriesbach-Schaibing;Bayern
5169;2004-12-01;2022-02-16;831;47.7674;10.4604;Kraftisried;Bayern
5171;2004-03-15;2017-11-15;647;47.7105;12.4652;Unterwössen-Hinterwössen;Bayern
5174;2006-10-09;2022-02-16;471;48.4951;9.4003;Urach, Bad;Baden-Württemberg
5187;2003-09-17;2022-02-16;591;48.0347;11.0527;Utting-Achselschwang;Bayern
5206;2006-10-10;2016-11-10;396;49.1186;9.8983;Vellberg-Kleinaltdorf;Baden-Württemberg
5209;2004-09-01;2022-02-16;21;52.9586;9.2269;Verden-Dauelsen;Niedersachsen
5225;2004-05-01;2022-02-16;125;50.2135;8.7453;Vilbel, Bad-Dortelweil;Hessen
5227;2004-11-01;2022-02-16;682;47.9692;10.9152;Vilgertshofen-Pflugdorf;Bayern
5229;2004-08-01;2022-02-16;719;48.0453;8.4608;Villingen-Schwenningen;Baden-Württemberg
5230;2004-10-01;2022-02-16;462;48.4527;12.3382;Vilsbiburg;Bayern
5240;2004-07-01;2022-02-16;380;51.1598;8.8738;Vöhl-Buchenberg;Hessen
5262;2004-10-01;2022-02-16;814;47.7564;11.6928;Waakirchen-Demmelberg;Bayern
5263;2004-07-01;2022-02-16;203;51.067;9.3821;Wabern-Hebel;Hessen
5275;2004-06-01;2022-02-16;105;49.2445;8.5374;Waghäusel-Kirrlach;Baden-Württemberg
5276;2005-04-01;2022-02-16;476;47.9237;12.7558;Waging am See;Bayern
5277;1995-09-11;2009-06-30;349;50.8119;9.128;Wahlen;Hessen
5279;2004-09-01;2022-02-16;176;51.6194;9.5749;Wesertal-Lippoldsberg;Hessen
5280;2007-03-01;2022-02-16;35;53.9224;10.2267;Wittenborn;Schleswig-Holstein
5285;2004-11-01;2022-02-16;501;49.618;12.4895;Waidhaus-Pfrentsch;Bayern
5294;2005-09-01;2022-02-16;280;50.5121;8.1326;Waldbrunn-Lahr;Hessen
5297;2004-10-01;2022-02-16;300;51.2427;8.9718;Waldeck-Alraft;Hessen
5300;2004-07-01;2022-02-16;380;50.2596;8.3607;Waldems-Reinborn;Hessen
5303;2004-09-01;2022-02-16;723;49.936;12.0935;Waldershof-Schafbruck;Bayern
5335;2006-08-01;2022-02-16;348;50.8963;10.5484;Waltershausen;Thüringen
5347;1995-09-01;2022-02-16;236;51.5039;9.1118;Warburg;Nordrhein-Westfalen
5349;1995-09-01;2022-02-16;73;53.5196;12.6654;Waren (Müritz);Mecklenburg-Vorpommern
5360;2007-07-01;2022-02-16;331;51.4319;8.2665;Warstein-Hirschberg;Nordrhein-Westfalen
5371;1999-03-20;2022-02-16;921;50.4973;9.9427;Wasserkuppe;Hessen
5374;2006-01-07;2022-02-16;420;49.034;10.6031;Wassertrüdingen (Kläranlage);Bayern
5382;2006-05-01;2022-02-16;39;52.5883;9.7386;Wedemark-Elze;Niedersachsen
5395;2006-11-01;2022-02-16;340;50.7676;11.981;Harth-Pöllnitz Neundorf;Thüringen
5397;1995-09-01;2022-02-16;440;49.6662;12.1844;Weiden;Bayern
5401;2005-01-01;2022-02-16;424;49.2717;12.7451;Weiding, Kreis Cham-Dalking;Bayern
5404;2008-11-24;2022-02-16;477;48.4024;11.6946;Weihenstephan-Dürnast;Bayern
5405;2004-07-01;2022-02-16;474;49.3376;10.606;Weihenzell-Grüb;Bayern
5416;2010-08-01;2022-02-16;183;50.4284;8.3806;Weilmünster;Hessen
5419;1996-11-02;2007-06-30;264;50.9751;11.3076;Weimar;Thüringen
5424;2007-06-01;2022-02-16;328;51.0177;11.3544;Weimar-Schöndorf;Thüringen
5426;1995-09-01;2022-02-16;553;49.3758;8.1212;Weinbiet;Rheinland-Pfalz
5433;2004-09-01;2022-02-16;380;49.5534;6.812;Weiskirchen/Saar;Saarland
5435;2006-10-10;2021-10-03;455;48.8457;8.9073;Weissach;Baden-Württemberg
5440;1995-09-01;2022-02-16;439;49.0115;10.9308;Weißenburg-Emetzheim;Bayern
5444;2004-07-01;2022-02-16;500;48.3091;10.2048;Weißenhorn-Oberreichenbach;Bayern
5453;2005-04-01;2022-02-16;174;48.188;7.6976;Weisweil-Waldeckhof;Baden-Württemberg
5468;2006-07-01;2020-10-01;418;50.9377;7.8475;Wenden-Dörnscheid;Nordrhein-Westfalen
5470;2002-11-01;2022-02-16;459;48.3631;11.5635;Fahrenzhausen;Bayern
5480;2003-09-10;2022-02-16;85;51.5763;7.8879;Werl;Nordrhein-Westfalen
5484;2004-05-01;2022-02-16;240;51.5835;10.709;Ellrich-Werna;Thüringen
5490;1995-09-01;2022-02-16;233;51.8454;10.7686;Wernigerode;Sachsen-Anhalt
5501;2005-02-18;2022-02-16;420;48.57;10.6985;Wertingen;Bayern
5508;2004-09-12;2018-06-12;323;50.5283;7.9475;Guckheim/Elbbach;Rheinland-Pfalz
5511;2005-10-01;2022-02-16;825;48.5206;9.6187;Westerheim;Baden-Württemberg
5513;2005-09-01;2022-02-16;92;52.2902;7.8687;Westerkappeln;Nordrhein-Westfalen
5516;1996-06-25;2022-02-16;3;54.5283;11.0606;Fehmarn;Schleswig-Holstein
5518;2005-10-01;2022-02-16;7;53.2504;7.935;Westerstede;Niedersachsen
5524;2006-10-01;2022-02-16;227;50.9087;8.6929;Wetter/Hessen-Amönau;Hessen
5538;2005-01-01;2022-02-16;551;47.8827;11.1576;Wielenbach (Demollstr.);Bayern
5541;2004-08-01;2022-02-16;263;50.1321;8.3169;Wiesbaden-Auringen;Hessen
5542;2004-07-01;2022-02-16;90;50.0421;8.2331;Wiesbaden-Biebrich;Hessen
5546;1995-09-01;2022-02-16;187;52.1207;12.4585;Wiesenburg;Brandenburg
5548;2004-07-01;2022-02-16;680;49.032;12.5505;Wiesenfelden-Utzenzell;Bayern
5555;2004-11-01;2022-02-16;43;52.2534;13.2361;Thyrow;Brandenburg
5559;2007-12-01;2022-02-16;383;48.7848;8.5764;Wildbad, Bad-Calmbach;Baden-Württemberg
5562;2004-06-01;2022-02-16;571;48.6516;8.6801;Neubulach-Oberhaugstett;Baden-Württemberg
5573;2004-03-15;2022-02-16;358;49.5664;10.7404;Wilhelmsdorf/Mittelfranken;Bayern
5600;2004-03-17;2022-02-16;310;49.5141;10.4231;Windsheim, Bad;Bayern
5614;2004-09-01;2019-03-26;35;52.7582;11.2549;Winterfeld-Sallenthin;Sachsen-Anhalt
5616;2004-08-01;2019-07-27;426;50.2282;6.2071;Winterspelt;Rheinland-Pfalz
5619;2004-12-01;2022-02-16;360;51.1637;7.4234;Wipperfürth-Gardeweg;Nordrhein-Westfalen
5625;2004-09-11;2013-05-14;320;50.8202;7.7419;Honigsessen;Rheinland-Pfalz
5629;1995-09-01;2022-02-16;105;51.8892;12.6445;Wittenberg;Sachsen-Anhalt
5635;2004-10-01;2022-02-16;147;49.9617;6.9287;Wittlich;Rheinland-Pfalz
5643;2004-11-01;2022-02-16;68;53.1864;12.4949;Wittstock-Rote Mühle;Brandenburg
5646;2004-05-01;2020-09-30;220;51.3645;9.7491;Witzenhausen-Ziegenhagen;Hessen
5663;1995-09-01;1995-12-31;118;53.4618;13.6099;Woldegk;Mecklenburg-Vorpommern
5664;2004-07-01;2022-02-16;296;48.2953;8.2391;Wolfach;Baden-Württemberg
5676;2010-09-01;2022-02-16;82;52.3962;10.6892;Wolfsburg (Südwest);Niedersachsen
5678;2006-10-10;2010-11-10;380;48.6535;9.2976;Wolfschlugen;Baden-Württemberg
5684;2017-11-01;2022-02-16;40;52.2813;12.458;Wollin;Brandenburg
5688;2018-11-01;2022-02-16;880;47.7003;8.1057;Dachsberg-Wolpadingen;Baden-Württemberg
5692;2004-09-01;2022-02-16;88;49.6051;8.3659;Worms;Rheinland-Pfalz
5699;2004-11-01;2022-02-16;312;51.5427;8.7784;Wünnenberg-Eilern;Nordrhein-Westfalen
5705;1995-09-01;2022-02-16;268;49.7704;9.9576;Würzburg;Bayern
5711;2007-07-01;2022-02-16;392;49.1296;9.4945;Wüstenrot-Oberheimbach;Baden-Württemberg
5717;2006-09-01;2022-02-16;134;51.2256;7.1052;Wuppertal-Buchenhofen;Nordrhein-Westfalen
5719;2004-10-01;2009-12-10;235;51.2051;7.2;Remscheid;Nordrhein-Westfalen
5721;2004-11-01;2022-02-16;474;48.3569;12.7679;Wurmannsquick-Egelsberg;Bayern
5724;2007-01-01;2022-02-16;690;47.9589;10.0139;Rot an der Rot-Buch;Baden-Württemberg
5729;2005-08-01;2022-02-16;6;52.7606;14.2174;Wustrow;Brandenburg
5731;2004-08-01;2022-02-16;398;47.6783;8.3801;Wutöschingen-Ofteringen;Baden-Württemberg
5732;2005-07-01;2022-02-16;8;54.6928;8.5271;Wrixum/Föhr;Schleswig-Holstein
5733;2005-05-01;2022-02-16;20;51.697;6.3974;Xanten;Nordrhein-Westfalen
5745;2004-06-01;2022-02-16;51;52.9663;13.3268;Zehdenick;Brandenburg
5750;2006-03-01;2022-02-16;264;51.0314;12.1495;Zeitz;Sachsen-Anhalt
5758;2004-10-01;2022-01-01;293;49.8709;6.7074;Zemmer (Forsthaus Mülchen);Rheinland-Pfalz
5762;2009-03-01;2022-02-16;83;53.0704;10.8831;Zernien;Niedersachsen
5763;2005-02-01;2022-02-16;141;51.238;11.8295;Freyburg/Unstrut-Zeuchfeld;Sachsen-Anhalt
5767;2006-01-01;2022-02-16;27;53.2989;9.3352;Heeslingen-Wiersdorf;Niedersachsen
5779;1995-09-01;2022-02-16;877;50.7314;13.7516;Zinnwald-Georgenfeld;Sachsen
5793;2004-03-17;2022-02-16;443;48.424;10.5924;Zusmarshausen;Bayern
5797;2005-12-01;2022-02-16;349;50.6879;12.4329;Lichtentanne;Sachsen
5800;1995-09-01;2022-02-16;615;49.028;13.2385;Zwiesel;Bayern
5814;2006-09-01;2022-02-16;321;51.5504;11.403;Mansfeld-Annarode;Sachsen-Anhalt
5822;2004-07-01;2022-02-16;40;52.863;8.6988;Bassum;Niedersachsen
5825;2004-05-01;2022-02-16;40;52.6198;12.7867;Berge;Brandenburg
5839;1997-07-01;2022-02-16;0;53.3881;7.2287;Emden;Niedersachsen
5840;2006-02-18;2022-02-16;600;48.6671;8.47;Enzklösterle;Baden-Württemberg
5854;2005-09-01;2022-02-16;24;53.6557;13.5369;Friedland;Mecklenburg-Vorpommern
5856;1997-01-07;2022-02-16;476;48.5451;13.3532;Fürstenzell;Bayern
5871;1998-10-28;2022-02-16;497;49.9463;7.2645;Hahn;Rheinland-Pfalz
5906;1995-09-01;2022-02-16;98;49.5063;8.5584;Mannheim;Baden-Württemberg
5930;1995-09-01;2022-02-16;1;54.641;10.0238;Schönhagen (Ostseebad);Schleswig-Holstein
5941;2007-03-01;2022-02-16;686;47.6754;12.4698;Reit im Winkl;Bayern
5943;2007-01-01;2022-02-16;460;50.8377;14.0719;Rosenthal-Bielatal;Sachsen
5985;2018-01-08;2022-02-16;386;48.652;9.6232;Boll, Bad (Kläranl.);Baden-Württemberg
5986;2018-05-23;2022-02-16;329;48.745;8.7301;Calw-Hirsau;Baden-Württemberg
5987;2018-05-23;2022-02-16;591;48.287;9.4996;Hayingen-Anhausen;Baden-Württemberg
5988;2018-05-23;2022-02-16;415;49.1638;9.9162;Ilshofen;Baden-Württemberg
5989;2018-05-23;2022-02-16;262;49.3502;9.7871;Mulfingen;Baden-Württemberg
5990;2018-05-23;2022-02-16;221;49.0137;9.3153;Oberstenfeld;Baden-Württemberg
5991;2018-05-23;2022-02-16;234;48.4997;8.1376;Oppenau Oberes Renchtal;Baden-Württemberg
5992;2018-01-11;2022-02-16;266;48.853;9.5365;Rudersberg-Michelau;Baden-Württemberg
5993;2018-06-24;2022-02-16;653;47.7595;9.7724;Vogt;Baden-Württemberg
5994;2018-05-23;2022-02-16;968;48.0277;8.2896;Vöhrenbach;Baden-Württemberg
6041;2019-04-10;2022-02-16;38;51.5496;6.945;Bottrop-Eigen PW;Nordrhein-Westfalen
6042;2019-04-10;2022-02-16;29;51.6671;6.9732;Dorsten-Harsewinkel PW;Nordrhein-Westfalen
6043;2019-04-10;2022-02-16;69;51.537;7.5809;Kurl PW;Nordrhein-Westfalen
6044;2019-04-10;2022-02-16;48;51.5733;7.2056;Recklinghausen-Reitwinkel PW;Nordrhein-Westfalen
6045;2019-04-10;2022-02-16;78;51.8898;7.2658;Rorup KA;Nordrhein-Westfalen
6046;2019-04-10;2022-02-16;83;51.5801;8.0812;Soest KA;Nordrhein-Westfalen
6047;2019-02-14;2022-02-16;78;50.995;6.7111;Buesdorf;Nordrhein-Westfalen
6048;2019-02-14;2022-02-16;90;50.9981;6.4925;Bedburg-Grottenherten;Nordrhein-Westfalen
6049;2019-02-14;2021-07-24;144;50.65;6.81;Euskirchen-Roitzheim;Nordrhein-Westfalen
6050;2019-02-14;2022-02-16;142;50.7439;6.6097;Vettweiss;Nordrhein-Westfalen
6051;2019-02-14;2022-02-16;271;50.6556;6.5536;Heimbach-Vlatten;Nordrhein-Westfalen
6052;2019-02-14;2022-02-16;111;50.7636;6.8383;Weilerswist;Nordrhein-Westfalen
6053;2019-02-14;2022-02-16;550;50.5083;6.6611;Nettersheim-Zingsheim;Nordrhein-Westfalen
6054;2020-09-21;2022-02-16;27;51.4247;6.7128;Rheinhausen;Nordrhein-Westfalen
6055;2020-09-22;2022-02-16;19;51.667;6.4714;Xanten (Kläranlage);Nordrhein-Westfalen
6057;2020-11-04;2022-02-16;183;51.0901;7.2831;Neumühle;Nordrhein-Westfalen
6058;2019-02-14;2022-02-16;180;51.0877;7.1005;Burscheid;Nordrhein-Westfalen
6059;2021-02-01;2022-02-16;199;51.2493;7.2994;Wuppertal-Beyenburg;Nordrhein-Westfalen
6060;2019-02-15;2022-02-16;161;51.0813;7.1845;Wermelskirchen-Dabringhausen;Nordrhein-Westfalen
6061;2019-02-14;2022-02-16;360;51.1062;7.5646;Kierspe-Stöcken;Nordrhein-Westfalen
6064;2019-02-19;2022-02-16;298;51.1717;7.3994;Wipperfürth-Müllensiepen;Nordrhein-Westfalen
6067;2019-02-14;2022-02-16;73;50.8825;6.6989;Kerpen;Nordrhein-Westfalen
6093;2004-05-01;2022-02-16;62;53.2139;10.4704;Wendisch Evern;Niedersachsen
6100;2004-09-01;2022-02-16;120;49.8626;8.2311;Hahnheim;Rheinland-Pfalz
6105;2004-05-01;2022-02-16;14;54.3194;9.8051;Ostenfeld (Rendsburg);Schleswig-Holstein
6109;2004-09-01;2022-02-16;50;53.3837;14.3728;Grambow-Schwennenz;Mecklenburg-Vorpommern
6129;2004-11-01;2022-02-16;291;51.0593;14.4266;Sohland/Spree;Sachsen
6157;2007-10-01;2022-02-16;8;53.641;8.0808;Wangerland-Hooksiel;Niedersachsen
6158;2004-11-01;2022-02-16;454;49.2249;10.6085;Weidenbach-Weiherschneidbach;Bayern
6159;2008-12-01;2022-02-16;8;52.9542;7.3196;Dörpen;Niedersachsen
6161;2004-10-01;2022-02-16;311;48.7577;13.0134;Osterhofen-Thundorf;Bayern
6163;1999-10-19;2022-02-16;27;54.1654;10.3519;Dörnick;Schleswig-Holstein
6169;2004-12-01;2009-11-13;761;47.761;10.8601;Steingaden-Riesen;Bayern
6170;2004-06-01;2022-02-16;40;52.0192;14.7254;Coschen;Brandenburg
6182;2004-06-01;2012-03-27;404;48.7757;12.1743;Mallersdorf-Pfaffenberg;Bayern
6186;2004-08-01;2019-05-27;268;50.1989;7.8651;Nastätten;Rheinland-Pfalz
6190;2005-03-01;2022-02-11;599;47.6392;13.0068;Berchtesgaden;Bayern
6191;2005-01-01;2022-02-16;684;48.9023;13.1442;Kirchberg/Niederbayern -Zell;Bayern
6195;2004-10-01;2022-02-16;305;49.956;11.0189;Scheßlitz-Köttensdorf;Bayern
6197;2000-10-13;2022-02-16;258;51.8664;9.271;Lügde-Paenbruch;Nordrhein-Westfalen
6199;2004-10-01;2022-02-16;16;54.2484;13.0418;Steinhagen-Negast;Mecklenburg-Vorpommern
6200;2004-10-01;2022-02-16;262;50.0785;10.4887;Königsberg/Bayern-Holzhausen;Bayern
6201;2004-12-01;2022-02-16;339;49.5334;10.1546;Simmershofen-Adelhofen;Bayern
6203;2005-03-01;2022-02-16;1088;47.6279;12.9015;Ramsau-Schwarzeck/Schmuck;Bayern
6215;2005-02-01;2022-02-16;689;49.2154;13.0662;Lam-Lambach;Bayern
6216;2005-04-01;2022-02-16;464;49.5321;12.2798;Trausnitz-Reisach;Bayern
6217;2004-10-01;2022-02-16;190;49.2406;6.9351;Saarbrücken-Burbach;Saarland
6242;2011-03-11;2021-07-01;64;50.4088;7.489;Mülheim-Kärlich;Rheinland-Pfalz
6243;2008-11-05;2022-02-16;96;49.2506;8.4422;Philippsburg KKW;Baden-Württemberg
6244;2008-11-05;2022-02-16;145;49.365;9.0804;Obrigheim;Baden-Württemberg
6245;2008-11-05;2022-02-16;180;49.0423;9.1733;Neckarwestheim KKW;Baden-Württemberg
6246;2008-11-05;2022-02-16;368;47.6213;8.2167;Waldshut KKW;Baden-Württemberg
6247;2018-07-19;2022-02-16;307;47.6078;8.1813;Dogern (Leibstadt);Baden-Württemberg
6249;2003-04-18;2022-02-16;350;50.3485;11.0313;Rödental-Schönstädt (Speicher);Bayern
6252;2003-04-28;2022-02-16;376;49.2105;11.1843;Rothsee bei Allersberg;Bayern
6255;2011-03-11;2018-10-23;351;49.4667;6.3968;Perl/Saar;Saarland
6256;2008-11-05;2022-02-16;201;47.91;7.5838;Bremgarten (Fessenheim);Baden-Württemberg
6257;2006-07-01;2022-02-16;723;47.6279;11.5166;Jachenau-Tannern;Bayern
6258;2003-01-05;2022-02-16;461;47.6845;9.4409;Friedrichshafen-Unterraderach;Baden-Württemberg
6259;2004-06-01;2022-02-16;524;49.021;9.6033;Großerlach-Mannenweiler;Baden-Württemberg
6260;2002-12-01;2022-02-16;385;49.3328;9.704;Ingelfingen-Stachenhausen;Baden-Württemberg
6262;2002-11-01;2022-02-16;412;48.7695;9.8737;Schwäbisch Gmünd-Weiler;Baden-Württemberg
6263;2004-07-01;2022-02-16;445;47.7738;8.8219;Singen;Baden-Württemberg
6264;2004-06-01;2022-02-16;457;51.414;8.65;Brilon-Thülen;Nordrhein-Westfalen
6265;2004-05-01;2022-02-16;36;52.3613;12.3867;Wusterwitz;Brandenburg
6266;2004-09-01;2022-02-16;112;52.0304;10.9626;Huy-Pabstorf;Sachsen-Anhalt
6268;2002-11-01;2022-02-16;173;50.7577;11.5178;Uhlstädt-Kirchhasel-Niederkrossen;Thüringen
6269;2007-04-01;2022-02-16;731;50.3594;12.4836;Klingenthal-Kamerun;Sachsen
6270;2004-09-01;2022-02-16;330;50.4099;10.4901;Römhild-Sülzdorf;Thüringen
6271;2004-06-01;2022-02-16;274;50.9771;12.0044;Crossen/Elster-Nickelsdorf;Thüringen
6272;2004-10-01;2022-02-16;283;50.8426;10.2518;Moorgrund Gräfen-Nitzendorf;Thüringen
6273;2004-06-01;2022-02-16;36;52.5075;11.8551;Demker;Sachsen-Anhalt
6275;2004-07-01;2022-02-16;325;48.6705;9.4627;Notzingen;Baden-Württemberg
6276;2004-11-01;2019-11-02;235;51.4895;7.7813;Fröndenberg-Hohenheide;Nordrhein-Westfalen
6279;2003-04-27;2022-02-16;500;47.9869;11.9942;Aßling;Bayern
6280;2003-04-27;2022-02-16;600;47.971;11.7747;Aying (Brauerei);Bayern
6281;2003-04-27;2022-02-16;420;49.3608;12.4477;Neunburg v. Wald-Eixendorf (Seemeister;Bayern
6282;2003-04-27;2022-02-16;250;49.7978;10.9998;Altendorf/Oberfranken;Bayern
6283;2003-04-27;2022-02-16;434;49.3826;10.3733;Colmberg-Binzwangen;Bayern
6284;2003-05-14;2022-02-16;420;49.2289;10.5044;Herrieden (Kläranlage);Bayern
6285;2003-04-27;2022-02-16;420;49.6546;9.2609;Amorbach-Neudorf;Bayern
6286;2003-04-28;2022-02-16;400;48.2612;12.4292;Ampfing (Kläranlage);Bayern
6287;2003-04-28;2022-02-16;160;50.1141;9.735;Gräfendorf,Kr.Main-Spessart (Kläranlag;Bayern
6288;2003-10-27;2021-11-02;1320;47.2689;10.5355;Gramais/Österreich;Tirol
6290;2006-04-24;2021-11-02;1100;47.3594;10.4578;Hinterhornbach/Österreich;Tirol
6293;2003-04-20;2022-02-14;737;47.5899;11.5504;Lenggries (Sylvenstein);Bayern
6294;2003-10-25;2022-02-16;600;47.5738;9.9033;Weiler-Simmerberg (Kläranlage);Bayern
6295;2003-11-01;2022-02-16;650;47.8023;11.8251;Miesbach (Kläranlage);Bayern
6296;2003-04-28;2022-02-16;320;48.7751;12.9578;Moos,Kr. Deggendorf-Maxmühle;Bayern
6297;2003-04-28;2022-02-16;420;48.3014;12.6025;Pleiskirchen;Bayern
6298;2003-04-28;2022-02-16;530;49.8128;12.3287;Plößberg-Liebenstein (Speicher);Bayern
6299;2003-04-28;2022-02-16;650;47.7733;12.6441;Ruhpolding (Kläranlage);Bayern
6300;2003-10-11;2022-02-16;796;47.5768;10.7179;Schwangau-Horn (LfW);Bayern
6301;2006-04-30;2021-11-11;1040;47.5067;10.5019;Untergschwend/Österreich;Tirol
6303;2003-03-08;2022-02-16;584;51.2915;8.5981;Willingen/Hochsauerland;Hessen
6305;2004-12-01;2022-02-16;193;51.2061;10.4978;Mühlhausen/Thüringen-Görmar;Thüringen
6307;2003-10-10;2022-02-16;825;47.4772;10.9403;Garmisch-Partenkirchen-Griesen;Bayern
6310;2004-08-01;2022-02-16;1;54.1049;13.8239;Karlshagen;Mecklenburg-Vorpommern
6312;2004-11-01;2020-10-01;362;49.5314;10.6418;Markt Erlbach-Mosbach;Bayern
6313;2004-12-01;2022-02-16;440;51.2488;7.4672;Breckerfeld-Wengeberg;Nordrhein-Westfalen
6314;2005-08-01;2022-02-16;306;51.0507;13.3003;Nossen;Sachsen
6315;2008-10-01;2022-02-16;123;49.0236;8.1788;Büchelberg;Rheinland-Pfalz
6316;2008-10-01;2022-02-16;203;49.0905;7.8157;Bundenthal;Rheinland-Pfalz
6317;2008-10-01;2022-02-16;97;49.4371;8.3133;Dannstadt-Schauernheim;Rheinland-Pfalz
6318;2008-10-01;2022-02-16;261;49.5284;7.8887;Enkenbach;Rheinland-Pfalz
6319;2008-10-01;2010-04-26;330;49.6147;7.2025;Hoppstädten-Weiersbach;Rheinland-Pfalz
6320;2008-10-01;2022-02-16;560;50.2272;6.7524;Kirchweiler;Rheinland-Pfalz
6321;2008-10-01;2022-02-16;327;49.5573;6.4541;Kirf-Beuren;Rheinland-Pfalz
6322;2008-10-01;2022-02-16;215;49.5414;7.4299;Kusel (Kläranlage);Rheinland-Pfalz
6323;2008-10-01;2022-02-16;526;50.0971;6.6746;Meisburg;Rheinland-Pfalz
6324;2008-10-01;2022-02-16;369;49.5892;6.6751;Oberzerf;Rheinland-Pfalz
6325;2008-10-01;2011-03-01;160;49.687;7.6528;Odenbach;Rheinland-Pfalz
6326;2008-10-01;2010-12-20;290;49.17;7.572;Pirmasens-Felsalbe;Rheinland-Pfalz
6327;2008-10-01;2021-07-15;60;50.5539;7.2554;Sinzig;Rheinland-Pfalz
6328;2008-10-01;2022-02-16;250;49.9285;6.6209;Speicher;Rheinland-Pfalz
6329;2016-10-20;2022-02-16;128;49.8559;7.9806;Sprendlingen;Rheinland-Pfalz
6330;2008-10-01;2022-02-16;394;50.1153;6.9215;Strohn;Rheinland-Pfalz
6331;2008-10-01;2010-08-26;163;49.6503;6.5332;Wawern;Rheinland-Pfalz
6332;2008-10-01;2010-05-19;210;49.4114;8.006;Weidenthal;Rheinland-Pfalz
6333;2009-09-16;2022-02-16;650;49.7286;7.1289;Hüttgeswasen;Rheinland-Pfalz
6334;2008-10-01;2010-08-31;215;49.2039;8.0308;Birkweiler;Rheinland-Pfalz
6336;2005-11-01;2022-02-16;288;50.0132;9.654;Lohr/Main-Halsbach;Bayern
6337;2004-08-01;2022-02-16;59;51.7663;7.5194;Lüdinghausen-Brochtrup;Nordrhein-Westfalen
6338;2005-03-01;2022-02-16;605;50.3618;11.6223;Steben, Bad;Bayern
6340;2004-09-12;2022-02-16;393;49.9321;7.388;Kirchberg, Rhein-Hunsrück-Kreis;Rheinland-Pfalz
6341;2003-11-15;2022-02-16;658;47.9603;11.0136;Dießen/Ammersee-Dettenschwang;Bayern
6342;2003-10-10;2022-02-16;609;47.6572;11.3187;Schlehdorf;Bayern
6343;2004-09-02;2022-02-04;902;47.5075;11.7049;Achenkirch/Österreich;Tirol
6344;2004-12-01;2022-02-16;168;50.394;8.1423;Runkel-Ennerich;Hessen
6346;2005-02-01;2022-02-16;531;48.207;11.2035;Maisach-Galgen;Bayern
6347;2005-03-01;2022-02-16;305;50.0579;10.2972;Schonungen-Mainberg;Bayern
7075;2005-02-01;2022-02-16;429;48.702;11.8493;Elsendorf-Horneck;Bayern
7077;2004-11-01;2022-02-16;54;53.5255;13.0161;Groß Lukow;Mecklenburg-Vorpommern
7078;2004-11-01;2022-02-16;33;53.5035;11.0014;Dodow;Mecklenburg-Vorpommern
7079;2004-12-01;2022-02-16;14;53.0443;14.2423;Berkholz-Meyenburg;Brandenburg
7099;2004-11-01;2021-10-04;187;52.0111;10.3966;Liebenburg-Othfresen;Niedersachsen
7104;2005-01-01;2022-02-16;221;49.6208;9.6032;Königheim;Baden-Württemberg
7105;2005-06-01;2022-02-16;719;47.835;12.6548;Siegsdorf-Höll;Bayern
7106;2006-09-01;2022-02-16;105;52.0714;8.4565;Bielefeld-Deppendorf;Nordrhein-Westfalen
7135;2005-01-01;2016-05-16;565;47.9655;9.6804;Aulendorf-Haslach;Baden-Württemberg
7138;2005-01-01;2022-02-16;682;48.2962;9.0701;Burladingen-Hausen;Baden-Württemberg
7139;2008-10-01;2022-02-16;303;49.6111;7.6428;Einöllen;Rheinland-Pfalz
7140;2007-10-30;2016-08-24;140;49.7874;7.9839;Eckelsheim;Rheinland-Pfalz
7187;2004-12-01;2022-02-16;194;49.7636;9.4063;Freudenberg/Main-Boxtal;Baden-Württemberg
7224;2005-04-16;2022-02-16;570;47.9324;9.5512;Altshausen;Baden-Württemberg
7226;2005-04-16;2022-02-16;640;47.7777;9.887;Kißlegg, Kr. Ravensburg;Baden-Württemberg
7227;2005-04-15;2022-02-16;280;49.6789;9.523;Külsheim (Klärwerk);Baden-Württemberg
7228;2005-04-12;2010-12-01;493;48.8868;9.8666;Leinzell-Eschach;Baden-Württemberg
7229;2005-04-15;2010-11-30;220;49.1739;9.0421;Massenbachhausen;Baden-Württemberg
7230;2005-04-15;2022-02-16;170;49.3078;9.3606;Möckmühl/Jagst;Baden-Württemberg
7231;2005-04-15;2016-11-10;375;49.4042;9.8691;Niederstetten-Adolzhausen;Baden-Württemberg
7233;2005-04-16;2022-02-16;415;49.257;10.0152;Rot am See;Baden-Württemberg
7234;2005-04-15;2022-02-16;310;48.2934;8.3066;Schiltach/ Kinzig;Baden-Württemberg
7235;2005-04-15;2022-02-16;650;48.2109;8.7656;Schömberg-Stausee;Baden-Württemberg
7237;2005-04-15;2012-12-01;380;49.0537;9.6245;Schwäbisch Hall-Wielandsweiler;Baden-Württemberg
7238;2005-04-15;2022-02-16;200;48.9243;8.9536;Vaihingen/ Enz;Baden-Württemberg
7239;2005-04-12;2016-03-23;178;49.3031;8.9032;Waibstadt/Schwarzbach;Baden-Württemberg
7240;2005-04-15;2022-02-16;567;48.4692;8.6304;Horb-Altheim;Baden-Württemberg
7241;2005-04-14;2022-02-16;470;48.8707;9.6442;Welzheim (Kläranlage);Baden-Württemberg
7242;2005-04-15;2022-02-16;565;48.5682;9.6372;Wiesensteig;Baden-Württemberg
7243;2005-04-15;2022-02-16;303;48.1372;8.0097;Winden;Baden-Württemberg
7244;1995-09-01;2004-09-30;62;53.1424;13.0319;Neuglobsow (HM);Brandenburg
7285;2005-08-01;2022-02-16;68;52.4153;11.0758;Oebisfelde-Weferlingen-Bösdorf;Sachsen-Anhalt
7287;2004-12-06;2022-02-16;980;47.605;13.0153;Berchtesgaden/Jenner;Bayern
7298;2005-07-01;2022-02-16;5;54.5268;9.0425;Hattstedt;Schleswig-Holstein
7319;2005-03-01;2022-02-16;435;48.7374;10.7393;Donauwörth-Osterweiler;Bayern
7321;2005-09-01;2022-02-16;160;51.1507;11.3321;Olbersleben;Thüringen
7322;2005-09-01;2022-02-16;699;47.766;7.7214;Malsburg-Marzell;Baden-Württemberg
7323;2006-01-01;2022-02-16;150;51.2359;12.5517;Belgershain;Sachsen
7324;2005-04-15;2012-02-06;85;50.0003;8.1025;Heidesheim (Kläranlage);Rheinland-Pfalz
7325;2011-09-01;2015-10-05;2650;47.4167;10.9794;Schneefernerhaus;Bayern
7326;2006-01-01;2022-02-16;134;51.1918;12.7645;Grimma-Kleinbothen;Sachsen
7327;2007-05-01;2022-02-16;323;50.8836;13.0425;Frankenberg-Altenhain;Sachsen
7328;2006-01-01;2022-02-16;219;50.8544;12.4216;Ponitz;Thüringen
7329;2005-11-01;2022-02-16;465;50.5467;12.2863;Treuen;Sachsen
7330;2005-10-01;2022-02-16;159;51.4633;7.978;Arnsberg-Neheim;Nordrhein-Westfalen
7331;2005-09-01;2022-02-16;467;48.6099;10.2674;Hermaringen-Allewind;Baden-Württemberg
7333;2006-07-01;2022-02-16;727;50.5803;13.2966;Marienberg-Rübenau;Sachsen
7334;2006-03-01;2022-02-16;131;51.2651;13.3588;Hirschstein-Heyda;Sachsen
7335;2006-02-01;2022-02-16;138;51.3658;13.5801;Strauch;Sachsen
7337;2007-04-01;2022-02-16;332;51.0577;14.6128;Dürrhennersdorf;Sachsen
7341;2005-07-18;2022-02-16;119;50.0899;8.7862;Offenbach-Wetterpark;Hessen
7343;2006-04-01;2022-02-16;689;50.62;13.4817;Deutschneudorf-Brüderwiese;Sachsen
7344;2006-06-01;2022-02-16;45;51.2992;6.2013;Nettetal-Hülst;Nordrhein-Westfalen
7350;2006-08-01;2022-02-16;585;49.1088;12.8231;Prackenbach-Neuhäusl;Bayern
7351;2005-09-08;2022-02-16;116;53.3175;13.4175;Feldberg/Mecklenburg;Mecklenburg-Vorpommern
7361;2006-07-01;2022-02-16;72;52.7363;10.344;Scharnhorst-Marwede;Niedersachsen
7364;2007-01-01;2022-02-16;74;51.6818;12.3053;Jeßnitz;Sachsen-Anhalt
7367;2007-12-01;2022-02-16;144;51.9643;9.8072;Alfeld;Niedersachsen
7368;2007-11-01;2022-02-16;312;51.0007;10.3621;Eisenach;Thüringen
7369;2007-11-01;2022-02-16;475;49.1623;10.3661;Feuchtwangen-Heilbronn;Bayern
7370;2006-12-11;2022-02-16;499;49.391;12.6838;Waldmünchen;Bayern
7372;2006-10-01;2022-02-16;37;52.7321;11.7123;Ballerstedt;Sachsen-Anhalt
7373;2006-03-01;2022-02-16;3;53.5984;6.7024;Borkum-Flugplatz;Niedersachsen
7374;2006-03-01;2022-02-16;46;52.0813;6.9409;Ahaus;Nordrhein-Westfalen
7375;2009-09-24;2022-02-16;411;49.645;7.5003;Homberg-Schönbornerhof;Rheinland-Pfalz
7378;2006-07-01;2022-02-16;101;51.0149;6.5173;Bedburg-Weiler Hohenholz;Nordrhein-Westfalen
7380;2006-05-26;2022-02-16;233;48.9353;9.4009;Backnang/Murr;Baden-Württemberg
7382;2006-12-01;2022-02-16;666;47.7096;9.866;Wangen/Allgäu-Schwaderberg;Baden-Württemberg
7389;2006-12-01;2022-02-16;82;52.7461;13.8427;Heckelberg;Brandenburg
7393;2010-01-01;2022-02-16;116;51.4493;14.2533;Hoyerswerda;Sachsen
7394;2006-06-01;2022-02-16;622;50.0315;11.9745;Wunsiedel-Schönbrunn;Bayern
7395;2007-12-01;2022-02-16;351;48.6595;12.5388;Gottfrieding;Bayern
7396;2008-05-01;2022-02-16;743;50.5084;9.2246;Hoherodskopf/Vogelsberg;Hessen
7403;2007-03-30;2022-02-16;672;47.7955;10.0325;Leutkirch-Herlazhofen;Baden-Württemberg
7410;2011-02-01;2022-02-14;350;50.7513;9.0224;Neu-Ulrichstein;Hessen
7412;2006-10-01;2022-02-16;340;50.0083;9.4238;Neuhütten/Spessart;Bayern
7418;2008-06-01;2022-02-16;321;50.802;12.6366;Sankt Egidien-Kuhschnappel;Sachsen
7419;2006-12-01;2022-02-16;389;50.661;12.0756;Langenwetzendorf-Göttendorf;Thüringen
7420;2007-04-01;2022-02-16;246;51.1044;11.7112;Naumburg/Saale-Kreipitzsch;Sachsen-Anhalt
7421;2006-12-01;2022-02-16;383;50.325;11.2395;Föritztal-Neuhaus-Schierschnitz;Thüringen
7423;2007-04-01;2022-02-16;163;51.3443;14.8387;Hähnichen-Trebus;Sachsen
7424;2006-12-01;2022-02-16;457;47.7724;12.9073;Piding;Bayern
7425;2006-08-01;2022-02-16;212;52.1384;9.1119;Rinteln-Volksen;Niedersachsen
7427;2007-09-01;2022-02-16;17;54.0188;9.9255;Padenstedt (Pony-Park);Schleswig-Holstein
7428;2007-05-01;2022-02-16;397;50.4167;10.8156;Veilsdorf;Thüringen
7429;2006-12-01;2022-02-16;336;49.4249;9.3316;Seckach;Baden-Württemberg
7430;2007-11-01;2022-02-16;258;50.0615;10.8129;Rentweinsdorf-Treinfeld;Bayern
7431;2007-11-01;2022-02-16;604;48.013;11.5524;Oberhaching-Laufzorn;Bayern
7432;2007-05-01;2022-02-16;72;52.6423;10.6627;Wittingen-Vorhop;Niedersachsen
7433;2007-11-05;2022-02-16;240;49.726;6.6957;Trier-Irsch;Rheinland-Pfalz
7434;2006-10-09;2022-02-16;351;48.8042;8.443;Herrenalb, Bad/Therme;Baden-Württemberg
7436;2006-10-10;2022-02-16;1025;48.1004;8.1973;Schönwald;Baden-Württemberg
7487;2006-11-26;2022-02-16;576;48.0272;9.486;Saulgau,Bad;Baden-Württemberg
7488;2006-11-26;2022-02-16;538;48.3846;8.4787;Betzweiler-Wälde;Baden-Württemberg
7489;2006-11-26;2022-02-16;348;48.7448;9.6484;Birenbach;Baden-Württemberg
7490;2006-11-26;2022-02-16;170;49.0334;8.7121;Bretten, Kreis Karlsruhe;Baden-Württemberg
7491;2006-11-26;2022-02-16;395;49.154;10.0632;Crailsheim/Jagst;Baden-Württemberg
7492;2006-11-26;2022-02-16;260;49.4844;10.019;Creglingen;Baden-Württemberg
7493;2006-11-26;2022-02-16;304;48.6704;8.3534;Forbach;Baden-Württemberg
7494;2006-11-26;2022-02-16;160;48.9597;8.5905;Königsbach-Stein, Enzkreis;Baden-Württemberg
7495;2006-11-26;2022-02-16;226;49.3786;9.6307;Krautheim;Baden-Württemberg
7496;2006-11-26;2010-02-11;460;49.0137;10.0477;Rosenberg;Baden-Württemberg
7497;2006-11-26;2022-02-16;651;48.1872;8.3667;Tennenbronn;Baden-Württemberg
7498;2006-11-26;2022-02-16;249;49.058;8.9124;Zaberfeld (Emetsklinge);Baden-Württemberg
7499;2007-07-01;2022-02-16;172;50.7893;7.828;Wallmenroth;Rheinland-Pfalz
7500;2007-01-01;2022-02-16;82;52.0223;12.1597;Badewitz bei Zerbst;Sachsen-Anhalt
13654;2007-08-01;2022-02-16;285;51.0063;13.471;Wilsdruff-Mohorn;Sachsen
13662;2007-05-08;2016-01-28;37;52.3031;12.4029;Boecke;Brandenburg
13669;2007-09-01;2022-02-16;55;52.0087;7.8519;Ostbevern-Schirlheide;Nordrhein-Westfalen
13670;2007-06-01;2022-02-16;24;51.5088;6.7018;Duisburg-Baerl;Nordrhein-Westfalen
13671;2007-12-01;2022-02-16;221;50.9655;7.2753;Overath-Böke;Nordrhein-Westfalen
13672;2008-05-01;2015-01-01;593;48.5537;9.9877;Weidenstetten;Baden-Württemberg
13674;2007-08-01;2022-02-16;237;49.2943;8.9053;Waibstadt;Baden-Württemberg
13675;2007-11-01;2022-02-16;77;52.0818;9.4077;Hameln-Hastenbeck;Niedersachsen
13687;2007-11-01;2022-02-16;18;53.9005;9.8308;Weddelbrook;Schleswig-Holstein
13688;2008-03-01;2022-02-16;128;51.1693;12.2618;Pegau;Sachsen
13689;2008-10-01;2022-02-16;249;50.4351;7.6657;Höhr-Grenzhausen;Rheinland-Pfalz
13694;2007-08-01;2022-02-16;590;47.8317;12.8222;Teisendorf-Babing;Bayern
13695;2007-08-01;2022-02-16;780;47.8219;12.7715;Teisendorf-Neukirchen (Wildberg);Bayern
13696;2007-12-01;2022-02-16;60;51.5966;7.4048;Waltrop-Abdinghof;Nordrhein-Westfalen
13698;2008-01-01;2022-02-16;504;48.8767;10.2413;Lauchheim (Berghof);Baden-Württemberg
13699;2008-03-01;2022-02-16;66;52.3667;10.1266;Lehrte-Sievershausen;Niedersachsen
13700;2008-05-01;2022-02-16;203;51.3329;7.3412;Gevelsberg-Oberbröking;Nordrhein-Westfalen
13710;2008-04-01;2022-02-16;490;48.5734;12.2576;Landshut-Reithof;Bayern
13711;2007-12-01;2022-02-16;289;50.682;11.515;Krölpa-Rockendorf;Thüringen
13712;2008-09-01;2022-02-16;44;52.1488;13.8359;Münchehofe;Brandenburg
13713;2007-11-01;2022-02-16;386;51.0899;7.6289;Meinerzhagen-Redlendorf;Nordrhein-Westfalen
13715;2008-03-01;2022-02-16;604;48.1003;9.8058;Biberach an der Riß-Bergerhausen;Baden-Württemberg
13716;2008-09-01;2022-02-16;818;47.819;8.5774;Blumberg-Randen;Baden-Württemberg
13774;2008-06-01;2022-02-16;328;50.8138;12.2985;Crimmitschau-Mannichswalde;Sachsen
13776;2008-03-01;2011-01-04;85;52.1789;9.9524;Hildesheim-Drispenstedt;Niedersachsen
13777;2008-06-01;2022-02-16;110;52.2467;10.9592;Helmstedt-Emmerstedt;Niedersachsen
13778;2007-12-08;2022-02-16;225;49.2531;7.3397;Zweibrücken (Kläranlage);Rheinland-Pfalz
13779;2007-12-10;2022-02-16;220;50.2696;7.8199;Singhofen/Lahn;Rheinland-Pfalz
13780;2008-03-19;2022-02-16;310;49.5419;7.7179;Schallodenbach/Pfalz;Rheinland-Pfalz
13912;2008-08-26;2022-02-16;85;50.3158;7.7785;Nassau (Kläranlage);Rheinland-Pfalz
13918;2008-06-23;2022-02-16;160;50.6181;7.478;Peterslahr (Kläranlage);Rheinland-Pfalz
13965;2008-12-01;2022-02-16;619;48.2639;8.8134;Balingen-Bronnhaupten;Baden-Württemberg
13968;2009-10-01;2022-02-16;435;50.239;6.6611;Gerolstein/Kyll;Rheinland-Pfalz
14006;2016-10-01;2022-02-16;145;49.3683;8.1854;Mußbach (Neustadt);Rheinland-Pfalz
14007;2012-02-13;2022-02-16;164;49.9596;8.236;Mainz-Marienborn;Rheinland-Pfalz
14008;2016-01-08;2022-02-16;245;49.8228;8.1044;Rommersheim (Eichenhof);Rheinland-Pfalz
14009;2016-12-12;2022-02-16;110;49.401;8.3478;Schifferstadt;Rheinland-Pfalz
14010;2016-05-01;2022-02-16;274;50.5582;7.0317;Esch/Swistbach;Rheinland-Pfalz
14011;2016-05-01;2022-02-16;309;50.4528;7.6528;Grenzau;Rheinland-Pfalz
14012;2021-11-14;2022-02-16;187;49.8598;7.8487;Kreuznach, Bad/Nahe;Rheinland-Pfalz
14013;2016-01-07;2022-02-16;128;49.8464;8.346;Oppenheim/ Rhein;Rheinland-Pfalz
14014;2016-04-01;2022-02-16;214;49.7271;8.1168;Kettenheim (Eichhof);Rheinland-Pfalz
14015;2016-10-01;2022-02-16;388;50.1587;7.4972;Gondershausen;Rheinland-Pfalz
14016;2016-12-02;2022-02-15;98;49.5871;8.3414;Kleinniedesheim;Rheinland-Pfalz
14017;2016-12-12;2022-02-16;127;49.1581;8.2536;Herxheimweyher;Rheinland-Pfalz
14018;2016-07-01;2022-02-16;180;49.5189;8.1875;Dackenheim/Pfalz;Rheinland-Pfalz
14019;2016-12-12;2022-02-16;115;49.2449;8.2912;Lustadt;Rheinland-Pfalz
14020;2016-05-01;2022-02-16;195;50.2558;7.3535;Münstermaifeld, Kr. Mayen-Koblenz;Rheinland-Pfalz
14021;2016-12-12;2022-02-16;209;49.827;8.332;Dienheim;Rheinland-Pfalz
14022;2016-07-01;2022-02-16;461;49.6353;7.2105;Dienstweiler;Rheinland-Pfalz
14023;2016-12-01;2022-02-16;476;50.1419;6.3126;Strickscheid;Rheinland-Pfalz
14024;2016-10-01;2022-02-16;197;49.9678;6.8593;Wittlich, Kreisstadt;Rheinland-Pfalz
14025;2016-04-01;2022-02-16;526;50.2596;6.802;Dreis-Brück;Rheinland-Pfalz
14026;2016-07-01;2022-02-15;296;50.7316;7.7003;Isert;Rheinland-Pfalz
14027;2016-10-01;2022-02-16;372;50.2643;8.0072;Berghausen;Rheinland-Pfalz
14028;2016-10-01;2022-02-16;411;49.3684;7.4688;Martinshöhe;Rheinland-Pfalz
14029;2016-10-01;2022-02-16;418;50.0005;7.5928;Wahlbach/Hunsr.;Rheinland-Pfalz
14030;2016-10-01;2022-02-16;307;49.4716;7.762;Morlautern;Rheinland-Pfalz
14031;2016-07-01;2022-02-16;369;49.5725;6.4647;Merzkirchen;Rheinland-Pfalz
14032;2016-05-01;2022-02-16;78;50.4468;7.5357;Heimbach-Weis/Rhein;Rheinland-Pfalz
14033;2016-10-01;2022-02-16;248;49.7542;6.6932;Avelsbach;Rheinland-Pfalz
14034;2016-10-01;2022-02-16;143;49.8004;6.7833;Riol;Rheinland-Pfalz
14035;2016-12-02;2022-02-16;194;49.6334;8.0278;Weierhof;Rheinland-Pfalz
14036;2016-05-01;2022-02-16;529;50.0708;6.6242;Steinborn;Rheinland-Pfalz
14037;2016-10-01;2022-02-16;325;50.0066;6.4587;Wiersdorf/Stausee Bitburg;Rheinland-Pfalz
14038;2016-05-01;2022-02-16;169;49.7756;7.6128;Meddersheim;Rheinland-Pfalz
14040;2021-11-19;2022-02-16;144;49.2605;8.1548;Edesheim;Rheinland-Pfalz
14042;2017-05-01;2022-02-16;150;50.5849;7.1455;Leimersdorf-Nierendorf;Rheinland-Pfalz
14048;2021-11-01;2022-02-16;203;50.0603;7.7609;Bacharach;Rheinland-Pfalz
14049;2021-11-19;2022-02-16;120;50.2531;7.5998;Boppard;Rheinland-Pfalz
14050;2021-11-19;2022-02-16;130;49.5206;8.2545;Weisenheim;Rheinland-Pfalz
14052;2016-01-11;2022-02-16;192;49.2165;8.0479;Siebeldingen;Rheinland-Pfalz
14054;2021-11-14;2022-02-16;213;49.1077;7.997;Bergzabern, Bad/Pfalz;Rheinland-Pfalz
14058;2021-11-01;2022-02-16;128;49.4624;8.2028;Dürkheim, Bad-Trift;Rheinland-Pfalz
14061;2021-11-20;2022-02-16;98;49.4622;8.2692;Ellerstadt/Pfalz;Rheinland-Pfalz
14063;2016-10-21;2022-02-16;88;49.9566;7.9642;Bingen-Gaulsheim;Rheinland-Pfalz
14065;2016-12-02;2022-02-16;115;49.6057;8.2531;Offstein;Rheinland-Pfalz
14069;2021-11-14;2022-02-16;197;49.6461;8.1482;Zellertal;Rheinland-Pfalz
14071;2021-11-01;2022-02-16;180;49.6384;7.5749;Wiesweiler;Rheinland-Pfalz
14072;2016-01-07;2022-02-16;133;50.0902;7.1401;Neef;Rheinland-Pfalz
14075;2021-11-19;2022-02-16;126;49.9145;6.9979;Brauneberg;Rheinland-Pfalz
14076;2021-11-14;2022-02-16;212;49.9524;7.0265;Zeltingen;Rheinland-Pfalz
14079;2021-11-14;2022-02-16;85;50.3126;7.5018;Winningen/Weinberg;Rheinland-Pfalz
14082;2021-11-14;2022-02-16;186;49.9217;7.0751;Bernkastel-Kues/Mosel;Rheinland-Pfalz
14083;2021-11-19;2022-02-16;197;50.1058;7.1326;Calmont;Rheinland-Pfalz
14087;2021-11-14;2022-02-16;151;49.7249;8.2739;Bechtheim;Rheinland-Pfalz
14088;2021-11-19;2022-02-16;104;50.0355;7.1487;Briedel;Rheinland-Pfalz
14090;2021-11-14;2022-02-16;111;49.6387;8.2969;Worms-Leiselheim;Rheinland-Pfalz
14092;2021-11-15;2022-02-16;120;49.925;8.2985;Bodenheim;Rheinland-Pfalz
14093;2021-11-19;2022-02-16;211;49.9719;8.186;Drais-Finthen;Rheinland-Pfalz
14096;2021-11-14;2022-02-16;150;50.6225;6.9917;Klein-Altendorf;Nordrhein-Westfalen
14104;2021-11-14;2022-02-16;113;50.0233;7.1828;Zell;Rheinland-Pfalz
14105;2021-11-14;2022-02-16;238;49.9017;8.2244;Zornheim;Rheinland-Pfalz
